[{"key":"acco - industrial zone","label":"Acco - Industrial Zone","lat":32.8984,"lon":35.0863,"source":"rocketalert.lookup","updatedAt":"2026-03-08T17:34:19.312Z"},{"key":"achiezer","label":"Achiezer","lat":31.9817,"lon":34.8718,"source":"rocketalert.lookup","updatedAt":"2026-03-08T17:34:19.312Z"},{"key":"achihud","label":"Achihud","lat":32.9074,"lon":35.1717,"source":"rocketalert.lookup","updatedAt":"2026-03-08T17:34:19.312Z"},{"key":"achita","label":"Achita","lat":32.0605,"lon":35.3273,"source":"rocketalert.lookup","updatedAt":"2026-03-08T16:29:00.120Z"},{"key":"achva","label":"Achva","lat":31.7429,"lon":34.7678,"source":"rocketalert.lookup","updatedAt":"2026-03-08T17:34:19.312Z"},{"key":"acre","label":"Acre","lat":32.9331,"lon":35.0827,"source":"rocketalert.lookup","updatedAt":"2026-03-08T17:34:19.312Z"},{"key":"ad halom industrial zone","label":"Ad Halom Industrial Zone","lat":31.7581,"lon":34.6559,"source":"rocketalert.lookup","updatedAt":"2026-03-08T17:34:19.312Z"},{"key":"adanim","label":"Adanim","lat":32.1388,"lon":34.9091,"source":"rocketalert.lookup","updatedAt":"2026-03-08T17:34:19.312Z"},{"key":"adei ad","label":"Adei Ad","lat":32.0398,"lon":35.3352,"source":"rocketalert.lookup","updatedAt":"2026-03-08T16:29:00.120Z"},{"key":"adi","label":"Adi","lat":32.7824,"lon":35.1734,"source":"rocketalert.lookup","updatedAt":"2026-03-08T17:34:19.312Z"},{"key":"afek","label":"Afek","lat":32.8383,"lon":35.1278,"source":"rocketalert.lookup","updatedAt":"2026-03-08T17:34:19.312Z"},{"key":"afek and lev ha\"aretz industrial zone","label":"Afek and Lev Ha\"aretz Industrial Zone","lat":32.10799,"lon":34.953088,"source":"rocketalert.lookup","updatedAt":"2026-03-08T17:34:19.312Z"},{"key":"ahisemech","label":"Ahisemech","lat":31.9319,"lon":34.9086,"source":"rocketalert.lookup","updatedAt":"2026-03-08T17:34:19.312Z"},{"key":"airport city","label":"Airport City","lat":31.9887,"lon":34.9123,"source":"rocketalert.lookup","updatedAt":"2026-03-08T17:34:19.312Z"},{"key":"akko new cemetery","label":"Akko New Cemetery","lat":32.9146,"lon":35.1358,"source":"rocketalert.lookup","updatedAt":"2026-03-08T17:34:19.312Z"},{"key":"alfei menashe","label":"Alfei Menashe","lat":32.1706,"lon":35.0149,"source":"rocketalert.lookup","updatedAt":"2026-03-08T17:34:19.312Z"},{"key":"alon hagalil","label":"Alon HaGalil","lat":32.7569,"lon":35.2203,"source":"rocketalert.lookup","updatedAt":"2026-03-08T17:34:19.312Z"},{"key":"alonei abba","label":"Alonei Abba","lat":32.7309,"lon":35.172,"source":"rocketalert.lookup","updatedAt":"2026-03-08T17:34:19.312Z"},{"key":"alonei habashan","label":"Alonei HaBashan","lat":33.0441,"lon":35.8385,"source":"rocketalert.lookup","updatedAt":"2026-03-08T17:34:19.312Z"},{"key":"alonim","label":"Alonim","lat":32.7215,"lon":35.1434,"source":"rocketalert.lookup","updatedAt":"2026-03-08T17:34:19.312Z"},{"key":"amichai","label":"Amichai","lat":32.0464,"lon":35.3283,"source":"rocketalert.lookup","updatedAt":"2026-03-08T16:29:00.120Z"},{"key":"amir","label":"Amir","lat":33.1777,"lon":35.6198,"source":"rocketalert.lookup","updatedAt":"2026-03-08T17:34:19.312Z"},{"key":"arab al-aramshe","label":"Arab al-Aramshe","lat":33.0888,"lon":35.2288,"source":"rocketalert.lookup","updatedAt":"2026-03-08T17:34:19.312Z"},{"key":"ariel","label":"Ariel","lat":32.1046,"lon":35.1745,"source":"rocketalert.lookup","updatedAt":"2026-03-08T17:34:19.312Z"},{"key":"ariel industrial park","label":"Ariel Industrial Park","lat":32.094,"lon":35.1234,"source":"rocketalert.lookup","updatedAt":"2026-03-08T17:34:19.312Z"},{"key":"arugot","label":"Arugot","lat":31.7328,"lon":34.7762,"source":"rocketalert.lookup","updatedAt":"2026-03-08T17:34:19.312Z"},{"key":"ashdod - alef,bet,dalet,heh","label":"Ashdod - Alef,Bet,Dalet,Heh","lat":31.8047,"lon":34.6469,"source":"rocketalert.lookup","updatedAt":"2026-03-08T17:34:19.312Z"},{"key":"ashdod - gimmel,vav,zain","label":"Ashdod - Gimmel,Vav,Zain","lat":31.7966,"lon":34.6579,"source":"rocketalert.lookup","updatedAt":"2026-03-08T17:34:19.312Z"},{"key":"ashdod - het,tet,yod,yod gimmel,yod dalet,tet zain","label":"Ashdod - Het,Tet,Yod,Yod Gimmel,Yod Dalet,Tet Zain","lat":31.7778,"lon":34.6462,"source":"rocketalert.lookup","updatedAt":"2026-03-08T17:34:19.312Z"},{"key":"ashdod - northern industrial zone and port","label":"Ashdod - Northern Industrial Zone And Port","lat":31.8298,"lon":34.6602,"source":"rocketalert.lookup","updatedAt":"2026-03-08T17:34:19.312Z"},{"key":"ashkelon - north","label":"Ashkelon - North","lat":31.686,"lon":34.5839,"source":"rocketalert.lookup","updatedAt":"2026-03-08T17:34:19.312Z"},{"key":"ashkelon - south","label":"Ashkelon - South","lat":31.661,"lon":34.5688,"source":"rocketalert.lookup","updatedAt":"2026-03-08T17:34:19.312Z"},{"key":"ashkelon northern industrial zone","label":"Ashkelon Northern Industrial Zone","lat":31.6647,"lon":34.5981,"source":"rocketalert.lookup","updatedAt":"2026-03-08T17:34:19.312Z"},{"key":"ashkelon southern industrial zone","label":"Ashkelon Southern Industrial Zone","lat":31.6361,"lon":34.5545,"source":"rocketalert.lookup","updatedAt":"2026-03-08T17:34:19.312Z"},{"key":"asseret","label":"Asseret","lat":31.8249,"lon":34.7475,"source":"rocketalert.lookup","updatedAt":"2026-03-08T17:34:19.312Z"},{"key":"atlit","label":"Atlit","lat":32.6909,"lon":34.9429,"source":"rocketalert.lookup","updatedAt":"2026-03-08T17:34:19.312Z"},{"key":"atteret","label":"Atteret","lat":32.0012,"lon":35.177,"source":"rocketalert.lookup","updatedAt":"2026-03-08T17:34:19.312Z"},{"key":"atzmon","label":"Atzmon (Segev)","lat":32.8658,"lon":35.2523,"source":"rocketalert.lookup","updatedAt":"2026-03-08T17:34:19.312Z"},{"key":"avdon","label":"Avdon","lat":33.0488,"lon":35.1791,"source":"rocketalert.lookup","updatedAt":"2026-03-08T17:34:19.312Z"},{"key":"avivim","label":"Avivim","lat":33.0894,"lon":35.4703,"source":"rocketalert.lookup","updatedAt":"2026-03-08T17:34:19.312Z"},{"key":"ayanot","label":"Ayanot","lat":31.9158,"lon":34.7681,"source":"rocketalert.lookup","updatedAt":"2026-03-08T17:34:19.312Z"},{"key":"ayelet hashachar","label":"Ayelet HaShachar","lat":33.0211,"lon":35.5767,"source":"rocketalert.lookup","updatedAt":"2026-03-08T17:34:19.312Z"},{"key":"azaria","label":"Azaria","lat":31.8905,"lon":34.9119,"source":"rocketalert.lookup","updatedAt":"2026-03-08T17:34:19.312Z"},{"key":"azor","label":"Azor","lat":32.0296,"lon":34.7996,"source":"rocketalert.lookup","updatedAt":"2026-03-08T17:34:19.312Z"},{"key":"azriel","label":"Azriel","lat":32.2628,"lon":34.9711,"source":"rocketalert.lookup","updatedAt":"2026-03-08T16:29:00.120Z"},{"key":"azrikam","label":"Azrikam","lat":31.7517,"lon":34.6948,"source":"rocketalert.lookup","updatedAt":"2026-03-08T17:34:19.312Z"},{"key":"bar lev industrial zone","label":"Bar Lev Industrial Zone","lat":32.9063,"lon":35.1948,"source":"rocketalert.lookup","updatedAt":"2026-03-08T17:34:19.312Z"},{"key":"bar on industrial zone","label":"Bar On Industrial Zone","lat":32.2488,"lon":35.1681,"source":"rocketalert.lookup","updatedAt":"2026-03-08T17:34:19.312Z"},{"key":"bareket","label":"Bareket","lat":32.0183,"lon":34.9432,"source":"rocketalert.lookup","updatedAt":"2026-03-08T17:34:19.312Z"},{"key":"barkan","label":"Barkan","lat":32.1095,"lon":35.106,"source":"rocketalert.lookup","updatedAt":"2026-03-08T17:34:19.312Z"},{"key":"barkan industrial park","label":"Barkan Industrial Park","lat":32.1051,"lon":35.1199,"source":"rocketalert.lookup","updatedAt":"2026-03-08T17:34:19.312Z"},{"key":"basmat tab'un","label":"Basmat Tab'un","lat":32.7363,"lon":35.1532,"source":"rocketalert.lookup","updatedAt":"2026-03-08T17:34:19.312Z"},{"key":"bat hadar","label":"Bat Hadar","lat":31.6481,"lon":34.5971,"source":"rocketalert.lookup","updatedAt":"2026-03-08T17:34:19.312Z"},{"key":"bat-yam","label":"Bat-Yam","lat":32.0146,"lon":34.7493,"source":"rocketalert.lookup","updatedAt":"2026-03-08T17:34:19.312Z"},{"key":"be'er ganim","label":"Be'er Ganim","lat":31.7004,"lon":34.6109,"source":"rocketalert.lookup","updatedAt":"2026-03-08T17:34:19.312Z"},{"key":"be'er tuvia","label":"Be'er Tuvia","lat":31.7371,"lon":34.7256,"source":"rocketalert.lookup","updatedAt":"2026-03-08T17:34:19.312Z"},{"key":"be'er tuvia industrial zone","label":"Be'er Tuvia Industrial Zone","lat":31.7249,"lon":34.751,"source":"rocketalert.lookup","updatedAt":"2026-03-08T17:34:19.312Z"},{"key":"be'er yacov","label":"Be'er Yacov","lat":31.9435,"lon":34.839,"source":"rocketalert.lookup","updatedAt":"2026-03-08T17:34:19.312Z"},{"key":"be'erot itzhak","label":"Be'erot Itzhak","lat":32.042,"lon":34.9102,"source":"rocketalert.lookup","updatedAt":"2026-03-08T17:34:19.312Z"},{"key":"beit arie","label":"Beit Arie","lat":32.0401,"lon":35.0495,"source":"rocketalert.lookup","updatedAt":"2026-03-08T17:34:19.312Z"},{"key":"beit arif","label":"Beit Arif","lat":31.9954,"lon":34.9351,"source":"rocketalert.lookup","updatedAt":"2026-03-08T17:34:19.312Z"},{"key":"beit berl","label":"Beit Berl","lat":32.1997,"lon":34.9261,"source":"rocketalert.lookup","updatedAt":"2026-03-08T16:29:00.120Z"},{"key":"beit dagan","label":"Beit Dagan","lat":32.0018,"lon":34.8297,"source":"rocketalert.lookup","updatedAt":"2026-03-08T17:34:19.312Z"},{"key":"beit el","label":"Beit El","lat":31.9416,"lon":35.2227,"source":"rocketalert.lookup","updatedAt":"2026-03-08T16:29:00.120Z"},{"key":"beit elazari","label":"Beit Elazari","lat":31.8447,"lon":34.8066,"source":"rocketalert.lookup","updatedAt":"2026-03-08T17:34:19.312Z"},{"key":"beit ezra","label":"Beit Ezra","lat":31.7364,"lon":34.6575,"source":"rocketalert.lookup","updatedAt":"2026-03-08T17:34:19.312Z"},{"key":"beit gamliel","label":"Beit Gamliel","lat":31.8561,"lon":34.7609,"source":"rocketalert.lookup","updatedAt":"2026-03-08T17:34:19.312Z"},{"key":"beit hanan","label":"Beit Hanan","lat":31.9352,"lon":34.7756,"source":"rocketalert.lookup","updatedAt":"2026-03-08T17:34:19.312Z"},{"key":"beit hashmonai","label":"Beit Hashmonai","lat":31.8903,"lon":34.9176,"source":"rocketalert.lookup","updatedAt":"2026-03-08T17:34:19.312Z"},{"key":"beit hilkia","label":"Beit Hilkia","lat":31.793,"lon":34.8097,"source":"rocketalert.lookup","updatedAt":"2026-03-08T17:34:19.312Z"},{"key":"beit hillel","label":"Beit Hillel","lat":33.2088,"lon":35.6065,"source":"rocketalert.lookup","updatedAt":"2026-03-08T17:34:19.312Z"},{"key":"beit nechemia","label":"Beit Nechemia","lat":31.9771,"lon":34.9538,"source":"rocketalert.lookup","updatedAt":"2026-03-08T17:34:19.312Z"},{"key":"beit oren","label":"Beit Oren","lat":32.7316,"lon":35.0063,"source":"rocketalert.lookup","updatedAt":"2026-03-08T17:34:19.312Z"},{"key":"beit oved","label":"Beit Oved","lat":31.9213,"lon":34.7749,"source":"rocketalert.lookup","updatedAt":"2026-03-08T17:34:19.312Z"},{"key":"beit shea'rim","label":"Beit Shea'rim","lat":32.6965,"lon":35.1788,"source":"rocketalert.lookup","updatedAt":"2026-03-08T17:34:19.312Z"},{"key":"beit shikma","label":"Beit Shikma","lat":31.6377,"lon":34.6101,"source":"rocketalert.lookup","updatedAt":"2026-03-08T17:34:19.312Z"},{"key":"beit uziel","label":"Beit Uziel","lat":31.8701,"lon":34.9049,"source":"rocketalert.lookup","updatedAt":"2026-03-08T17:34:19.312Z"},{"key":"beit zvi","label":"Beit Zvi","lat":32.7189,"lon":34.9697,"source":"rocketalert.lookup","updatedAt":"2026-03-08T17:34:19.312Z"},{"key":"beka'ot","label":"Beka'ot","lat":32.2421,"lon":35.4526,"source":"rocketalert.lookup","updatedAt":"2026-03-08T17:34:19.312Z"},{"key":"beko'a","label":"Beko'a","lat":31.8279,"lon":34.9247,"source":"rocketalert.lookup","updatedAt":"2026-03-08T17:34:19.312Z"},{"key":"ben shemen","label":"Ben Shemen","lat":31.9513,"lon":34.9198,"source":"rocketalert.lookup","updatedAt":"2026-03-08T17:34:19.312Z"},{"key":"ben shemen youth village","label":"Ben Shemen Youth Village","lat":31.9597,"lon":34.9291,"source":"rocketalert.lookup","updatedAt":"2026-03-08T17:34:19.312Z"},{"key":"ben zakai","label":"Ben Zakai","lat":31.8572,"lon":34.7274,"source":"rocketalert.lookup","updatedAt":"2026-03-08T17:34:19.312Z"},{"key":"berekhya","label":"Berekhya","lat":31.668,"lon":34.6243,"source":"rocketalert.lookup","updatedAt":"2026-03-08T17:34:19.312Z"},{"key":"bethlehem of galilee","label":"Bethlehem of Galilee","lat":32.7346,"lon":35.1913,"source":"rocketalert.lookup","updatedAt":"2026-03-08T17:34:19.312Z"},{"key":"betzet","label":"Betzet","lat":33.07,"lon":35.1326,"source":"rocketalert.lookup","updatedAt":"2026-03-08T17:34:19.312Z"},{"key":"betzet beach","label":"Betzet Beach","lat":33.0801,"lon":35.1066,"source":"rocketalert.lookup","updatedAt":"2026-03-08T17:34:19.312Z"},{"key":"bir al-maksur","label":"Bir al-Maksur","lat":32.7773,"lon":35.2206,"source":"rocketalert.lookup","updatedAt":"2026-03-08T17:34:19.312Z"},{"key":"bitzaron","label":"Bitzaron","lat":31.795,"lon":34.7293,"source":"rocketalert.lookup","updatedAt":"2026-03-08T17:34:19.312Z"},{"key":"bnaya","label":"Bnaya","lat":31.8434,"lon":34.7518,"source":"rocketalert.lookup","updatedAt":"2026-03-08T17:34:19.312Z"},{"key":"bnei atarot","label":"Bnei Atarot","lat":32.0215,"lon":34.9101,"source":"rocketalert.lookup","updatedAt":"2026-03-08T17:34:19.312Z"},{"key":"bnei ayish","label":"Bnei Ayish","lat":31.7902,"lon":34.7593,"source":"rocketalert.lookup","updatedAt":"2026-03-08T17:34:19.312Z"},{"key":"bnei brak","label":"Bnei Brak","lat":32.0849,"lon":34.8352,"source":"rocketalert.lookup","updatedAt":"2026-03-08T17:34:19.312Z"},{"key":"bnei darom","label":"Bnei Darom","lat":31.8209,"lon":34.6916,"source":"rocketalert.lookup","updatedAt":"2026-03-08T17:34:19.312Z"},{"key":"bnei darom compound","label":"Bnei Darom Compound","lat":31.8233,"lon":34.6994,"source":"rocketalert.lookup","updatedAt":"2026-03-08T17:34:19.312Z"},{"key":"bnei re'em","label":"Bnei Re'em","lat":31.77,"lon":34.7905,"source":"rocketalert.lookup","updatedAt":"2026-03-08T17:34:19.312Z"},{"key":"brukhin","label":"Brukhin","lat":32.0822,"lon":35.0941,"source":"rocketalert.lookup","updatedAt":"2026-03-08T17:34:19.312Z"},{"key":"buq'ata","label":"Buq'ata","lat":33.2027,"lon":35.7768,"source":"rocketalert.lookup","updatedAt":"2026-03-08T17:34:19.312Z"},{"key":"dafna","label":"Dafna","lat":33.2308,"lon":35.6383,"source":"rocketalert.lookup","updatedAt":"2026-03-08T17:34:19.312Z"},{"key":"daliyat al-karmel","label":"Daliyat al-Karmel","lat":32.6938,"lon":35.0554,"source":"rocketalert.lookup","updatedAt":"2026-03-08T17:34:19.312Z"},{"key":"dishon","label":"Dishon","lat":33.0823,"lon":35.5176,"source":"rocketalert.lookup","updatedAt":"2026-03-08T17:34:19.312Z"},{"key":"dmeide","label":"Dmeide","lat":32.815,"lon":35.2266,"source":"rocketalert.lookup","updatedAt":"2026-03-08T17:34:19.312Z"},{"key":"dolev","label":"Dolev","lat":31.9262,"lon":35.1336,"source":"rocketalert.lookup","updatedAt":"2026-03-08T16:29:00.120Z"},{"key":"eilon","label":"Eilon","lat":33.0625,"lon":35.2192,"source":"rocketalert.lookup","updatedAt":"2026-03-08T17:34:19.312Z"},{"key":"ein carmel","label":"Ein Carmel","lat":32.6779,"lon":34.9537,"source":"rocketalert.lookup","updatedAt":"2026-03-08T17:34:19.312Z"},{"key":"ein chod","label":"Ein Chod","lat":32.6914,"lon":34.9991,"source":"rocketalert.lookup","updatedAt":"2026-03-08T17:34:19.312Z"},{"key":"ein hamifratz","label":"Ein HaMifratz","lat":32.9026,"lon":35.093,"source":"rocketalert.lookup","updatedAt":"2026-03-08T17:34:19.312Z"},{"key":"ein hod","label":"Ein Hod","lat":32.7003,"lon":34.9827,"source":"rocketalert.lookup","updatedAt":"2026-03-08T17:34:19.312Z"},{"key":"ein quiniyye","label":"Ein Quiniyye","lat":33.2367,"lon":35.7313,"source":"rocketalert.lookup","updatedAt":"2026-03-08T17:34:19.312Z"},{"key":"ein tzurim","label":"Ein Tzurim","lat":31.6949,"lon":34.7187,"source":"rocketalert.lookup","updatedAt":"2026-03-08T17:34:19.312Z"},{"key":"ein zivan","label":"Ein Zivan","lat":33.0965,"lon":35.7963,"source":"rocketalert.lookup","updatedAt":"2026-03-08T17:34:19.312Z"},{"key":"einat","label":"Einat","lat":32.0819,"lon":34.9375,"source":"rocketalert.lookup","updatedAt":"2026-03-08T17:34:19.312Z"},{"key":"einav","label":"Einav","lat":32.2836,"lon":35.1252,"source":"rocketalert.lookup","updatedAt":"2026-03-08T17:34:19.312Z"},{"key":"el rom","label":"El Rom","lat":33.1805,"lon":35.7701,"source":"rocketalert.lookup","updatedAt":"2026-03-08T17:34:19.312Z"},{"key":"elad","label":"Elad","lat":32.0495,"lon":34.9507,"source":"rocketalert.lookup","updatedAt":"2026-03-08T17:34:19.312Z"},{"key":"eli","label":"Eli","lat":32.0712,"lon":35.2669,"source":"rocketalert.lookup","updatedAt":"2026-03-08T16:29:00.120Z"},{"key":"elishema","label":"Elishema","lat":32.1548,"lon":34.9305,"source":"rocketalert.lookup","updatedAt":"2026-03-08T17:34:19.312Z"},{"key":"elkana","label":"Elkana","lat":32.1106,"lon":35.0321,"source":"rocketalert.lookup","updatedAt":"2026-03-08T17:34:19.312Z"},{"key":"elon moreh","label":"Elon Moreh","lat":32.2344,"lon":35.3312,"source":"rocketalert.lookup","updatedAt":"2026-03-08T17:34:19.312Z"},{"key":"emunim","label":"Emunim","lat":31.7439,"lon":34.6745,"source":"rocketalert.lookup","updatedAt":"2026-03-08T17:34:19.312Z"},{"key":"etz ephraim","label":"Etz Ephraim","lat":32.1194,"lon":35.0464,"source":"rocketalert.lookup","updatedAt":"2026-03-08T17:34:19.312Z"},{"key":"even menachem","label":"Even Menachem","lat":33.0751,"lon":35.2952,"source":"rocketalert.lookup","updatedAt":"2026-03-08T17:34:19.312Z"},{"key":"eyal","label":"Eyal","lat":32.211823,"lon":34.979862,"source":"rocketalert.lookup","updatedAt":"2026-03-08T16:29:00.120Z"},{"key":"ezer","label":"Ezer","lat":31.7362,"lon":34.6714,"source":"rocketalert.lookup","updatedAt":"2026-03-08T17:34:19.312Z"},{"key":"gadot","label":"Gadot","lat":33.0182,"lon":35.6195,"source":"rocketalert.lookup","updatedAt":"2026-03-08T17:34:19.312Z"},{"key":"gan hadarom","label":"Gan HaDarom","lat":31.8041,"lon":34.6999,"source":"rocketalert.lookup","updatedAt":"2026-03-08T17:34:19.312Z"},{"key":"gan haim","label":"Gan Haim","lat":32.1958,"lon":34.907,"source":"rocketalert.lookup","updatedAt":"2026-03-08T16:29:00.120Z"},{"key":"gan shlomo","label":"Gan Shlomo","lat":31.8788,"lon":34.7989,"source":"rocketalert.lookup","updatedAt":"2026-03-08T17:34:19.312Z"},{"key":"gan sorek","label":"Gan Sorek","lat":31.944,"lon":34.7583,"source":"rocketalert.lookup","updatedAt":"2026-03-08T17:34:19.312Z"},{"key":"gan yavne","label":"Gan Yavne","lat":31.7831,"lon":34.7031,"source":"rocketalert.lookup","updatedAt":"2026-03-08T17:34:19.312Z"},{"key":"ganei am","label":"Ganei Am","lat":32.1498,"lon":34.9034,"source":"rocketalert.lookup","updatedAt":"2026-03-08T17:34:19.312Z"},{"key":"ganei hadar","label":"Ganei Hadar","lat":31.8782,"lon":34.8576,"source":"rocketalert.lookup","updatedAt":"2026-03-08T17:34:19.312Z"},{"key":"ganei tal","label":"Ganei Tal","lat":31.7886,"lon":34.7914,"source":"rocketalert.lookup","updatedAt":"2026-03-08T17:34:19.312Z"},{"key":"ganei tikva","label":"Ganei Tikva","lat":32.0605,"lon":34.8731,"source":"rocketalert.lookup","updatedAt":"2026-03-08T17:34:19.312Z"},{"key":"ganei yochanan","label":"Ganei Yochanan","lat":31.8599,"lon":34.8408,"source":"rocketalert.lookup","updatedAt":"2026-03-08T17:34:19.312Z"},{"key":"ganot","label":"Ganot","lat":32.0182,"lon":34.8259,"source":"rocketalert.lookup","updatedAt":"2026-03-08T17:34:19.312Z"},{"key":"gat rimon","label":"Gat Rimon","lat":32.0681,"lon":34.8814,"source":"rocketalert.lookup","updatedAt":"2026-03-08T17:34:19.312Z"},{"key":"gdera","label":"Gdera","lat":31.8123,"lon":34.777,"source":"rocketalert.lookup","updatedAt":"2026-03-08T17:34:19.312Z"},{"key":"ge'a","label":"Ge'a","lat":31.6285,"lon":34.6027,"source":"rocketalert.lookup","updatedAt":"2026-03-08T17:34:19.312Z"},{"key":"ge'alya","label":"Ge'alya","lat":31.8856,"lon":34.7654,"source":"rocketalert.lookup","updatedAt":"2026-03-08T17:34:19.312Z"},{"key":"gedera industrial area","label":"Gedera Industrial Area","lat":31.7995,"lon":34.7677,"source":"rocketalert.lookup","updatedAt":"2026-03-08T17:34:19.312Z"},{"key":"gelilot - pi compound","label":"Gelilot - Pi Compound","lat":32.1384,"lon":34.8045,"source":"rocketalert.lookup","updatedAt":"2026-03-08T16:29:00.120Z"},{"key":"gezer","label":"Gezer","lat":31.8761,"lon":34.9203,"source":"rocketalert.lookup","updatedAt":"2026-03-08T17:34:19.312Z"},{"key":"ghajar","label":"Ghajar","lat":33.2728,"lon":35.6242,"source":"rocketalert.lookup","updatedAt":"2026-03-08T17:34:19.312Z"},{"key":"gibton","label":"Gibton","lat":31.8883,"lon":34.7991,"source":"rocketalert.lookup","updatedAt":"2026-03-08T17:34:19.312Z"},{"key":"gilgal","label":"Gilgal","lat":32.0004,"lon":35.4448,"source":"rocketalert.lookup","updatedAt":"2026-03-08T16:34:06.108Z"},{"key":"gimzo","label":"Gimzo","lat":31.9272,"lon":34.9411,"source":"rocketalert.lookup","updatedAt":"2026-03-08T17:34:19.312Z"},{"key":"ginaton","label":"Ginaton","lat":31.9628,"lon":34.9131,"source":"rocketalert.lookup","updatedAt":"2026-03-08T17:34:19.312Z"},{"key":"gitit","label":"Gitit","lat":32.1003,"lon":35.3954,"source":"rocketalert.lookup","updatedAt":"2026-03-08T16:29:00.120Z"},{"key":"giv'at asaf","label":"Giv'at Asaf","lat":31.9112,"lon":35.2481,"source":"rocketalert.lookup","updatedAt":"2026-03-08T16:29:00.120Z"},{"key":"giv'at ko'ah","label":"Giv'at Ko'ah","lat":32.032091,"lon":34.938796,"source":"rocketalert.lookup","updatedAt":"2026-03-08T17:34:19.312Z"},{"key":"givat brenner","label":"Givat Brenner","lat":31.8666,"lon":34.8023,"source":"rocketalert.lookup","updatedAt":"2026-03-08T17:34:19.312Z"},{"key":"givat ela","label":"Givat Ela","lat":32.722,"lon":35.2448,"source":"rocketalert.lookup","updatedAt":"2026-03-08T17:34:19.312Z"},{"key":"givat hashlosha","label":"Givat HaShlosha","lat":32.0963,"lon":34.9206,"source":"rocketalert.lookup","updatedAt":"2026-03-08T17:34:19.312Z"},{"key":"givat hen","label":"Givat Hen","lat":32.1676,"lon":34.8755,"source":"rocketalert.lookup","updatedAt":"2026-03-08T16:29:00.120Z"},{"key":"givat shmuel","label":"Givat Shmuel","lat":32.0773,"lon":34.8492,"source":"rocketalert.lookup","updatedAt":"2026-03-08T17:34:19.312Z"},{"key":"givat washington","label":"Givat Washington","lat":31.8175,"lon":34.7289,"source":"rocketalert.lookup","updatedAt":"2026-03-08T17:34:19.312Z"},{"key":"givat wolfson","label":"Givat Wolfson","lat":32.7202,"lon":35.0161,"source":"rocketalert.lookup","updatedAt":"2026-03-08T17:34:19.312Z"},{"key":"givatayim","label":"Givatayim","lat":32.0722,"lon":34.8089,"source":"rocketalert.lookup","updatedAt":"2026-03-08T17:34:19.312Z"},{"key":"givati","label":"Givati","lat":31.7331,"lon":34.6795,"source":"rocketalert.lookup","updatedAt":"2026-03-08T17:34:19.312Z"},{"key":"gonen","label":"Gonen","lat":33.124,"lon":35.6462,"source":"rocketalert.lookup","updatedAt":"2026-03-08T17:34:19.312Z"},{"key":"goren","label":"Goren","lat":33.0556,"lon":35.2336,"source":"rocketalert.lookup","updatedAt":"2026-03-08T17:34:19.312Z"},{"key":"gornot hagalil","label":"Gornot HaGalil","lat":33.0593,"lon":35.2497,"source":"rocketalert.lookup","updatedAt":"2026-03-08T17:34:19.312Z"},{"key":"hagoshrim","label":"HaGoshrim","lat":33.2215,"lon":35.623,"source":"rocketalert.lookup","updatedAt":"2026-03-08T17:34:19.312Z"},{"key":"hahotrim","label":"HaHotrim","lat":32.7523,"lon":34.9575,"source":"rocketalert.lookup","updatedAt":"2026-03-08T17:34:19.312Z"},{"key":"hasollelim","label":"HaSollelim","lat":32.7518,"lon":35.238,"source":"rocketalert.lookup","updatedAt":"2026-03-08T17:34:19.312Z"},{"key":"hazor'im","label":"HaZor'im","lat":32.7481,"lon":35.4999,"source":"rocketalert.lookup","updatedAt":"2026-03-08T17:34:19.312Z"},{"key":"hadid","label":"Hadid","lat":31.9694,"lon":34.9322,"source":"rocketalert.lookup","updatedAt":"2026-03-08T17:34:19.312Z"},{"key":"hafetz haim","label":"Hafetz Haim","lat":31.7893,"lon":34.7997,"source":"rocketalert.lookup","updatedAt":"2026-03-08T17:34:19.312Z"},{"key":"hagor","label":"Hagor","lat":32.1386,"lon":34.9476,"source":"rocketalert.lookup","updatedAt":"2026-03-08T17:34:19.312Z"},{"key":"haifa - bay","label":"Haifa - Bay","lat":32.8049,"lon":35.0521,"source":"rocketalert.lookup","updatedAt":"2026-03-08T17:34:19.312Z"},{"key":"haifa - carmel, hadar and downtown lower city","label":"Haifa - Carmel, Hadar and Downtown Lower City","lat":32.8072,"lon":34.9878,"source":"rocketalert.lookup","updatedAt":"2026-03-08T17:34:19.312Z"},{"key":"haifa - kiryat haim & kiryat shmuel","label":"Haifa - Kiryat Haim & Kiryat Shmuel","lat":32.8283,"lon":35.0656,"source":"rocketalert.lookup","updatedAt":"2026-03-08T17:34:19.312Z"},{"key":"haifa - ramot hacarmel and neveh sha'anan","label":"Haifa - Ramot HaCarmel and Neveh Sha'anan","lat":32.7812,"lon":35.0015,"source":"rocketalert.lookup","updatedAt":"2026-03-08T17:34:19.312Z"},{"key":"haifa - west","label":"Haifa - West","lat":32.8087,"lon":34.9603,"source":"rocketalert.lookup","updatedAt":"2026-03-08T17:34:19.312Z"},{"key":"hajajre","label":"Hajajre","lat":32.741,"lon":35.2049,"source":"rocketalert.lookup","updatedAt":"2026-03-08T17:34:19.312Z"},{"key":"hamra","label":"Hamra","lat":32.1997,"lon":35.4374,"source":"rocketalert.lookup","updatedAt":"2026-03-08T17:34:19.312Z"},{"key":"hanaton","label":"Hanaton","lat":32.7831,"lon":35.2451,"source":"rocketalert.lookup","updatedAt":"2026-03-08T17:34:19.312Z"},{"key":"hanita","label":"Hanita","lat":33.0876,"lon":35.1734,"source":"rocketalert.lookup","updatedAt":"2026-03-08T17:34:19.312Z"},{"key":"har bracha","label":"Har Bracha","lat":32.1933,"lon":35.2649,"source":"rocketalert.lookup","updatedAt":"2026-03-08T17:34:19.312Z"},{"key":"harduf","label":"Harduf","lat":32.7637,"lon":35.1747,"source":"rocketalert.lookup","updatedAt":"2026-03-08T17:34:19.312Z"},{"key":"hashmonaim","label":"Hashmonaim","lat":31.9326,"lon":35.0233,"source":"rocketalert.lookup","updatedAt":"2026-03-08T17:34:19.312Z"},{"key":"hatzav","label":"Hatzav","lat":31.7801,"lon":34.7706,"source":"rocketalert.lookup","updatedAt":"2026-03-08T17:34:19.312Z"},{"key":"hatzor","label":"Hatzor","lat":31.773,"lon":34.7199,"source":"rocketalert.lookup","updatedAt":"2026-03-08T17:34:19.312Z"},{"key":"havat gil'ad","label":"Havat Gil'ad","lat":32.2005,"lon":35.1812,"source":"rocketalert.lookup","updatedAt":"2026-03-08T17:34:19.312Z"},{"key":"havat yair","label":"Havat Yair","lat":32.1453,"lon":35.1048,"source":"rocketalert.lookup","updatedAt":"2026-03-08T17:34:19.312Z"},{"key":"hemed","label":"Hemed","lat":32.018,"lon":34.8413,"source":"rocketalert.lookup","updatedAt":"2026-03-08T17:34:19.312Z"},{"key":"herzeliya - center and glil yam","label":"Herzeliya - Center and Glil Yam","lat":32.1678,"lon":34.8413,"source":"rocketalert.lookup","updatedAt":"2026-03-08T16:29:00.120Z"},{"key":"herzliya - west","label":"Herzliya - West","lat":32.1738,"lon":34.8104,"source":"rocketalert.lookup","updatedAt":"2026-03-08T16:29:00.120Z"},{"key":"hod hasharon","label":"Hod HaSharon","lat":32.15,"lon":34.8839,"source":"rocketalert.lookup","updatedAt":"2026-03-08T17:34:19.312Z"},{"key":"hodaya","label":"Hodaya","lat":31.6764,"lon":34.6393,"source":"rocketalert.lookup","updatedAt":"2026-03-08T17:34:19.312Z"},{"key":"holon","label":"Holon","lat":32.0158,"lon":34.7874,"source":"rocketalert.lookup","updatedAt":"2026-03-08T17:34:19.312Z"},{"key":"horasha","label":"Horasha","lat":31.9444,"lon":35.148,"source":"rocketalert.lookup","updatedAt":"2026-03-08T17:34:19.312Z"},{"key":"horashim","label":"Horashim","lat":32.1379,"lon":34.971,"source":"rocketalert.lookup","updatedAt":"2026-03-08T17:34:19.312Z"},{"key":"hoshaya","label":"Hoshaya","lat":32.7579,"lon":35.2952,"source":"rocketalert.lookup","updatedAt":"2026-03-08T17:34:19.312Z"},{"key":"hulata","label":"Hulata","lat":33.0529,"lon":35.6092,"source":"rocketalert.lookup","updatedAt":"2026-03-08T17:34:19.312Z"},{"key":"hulda","label":"Hulda","lat":31.8321,"lon":34.8815,"source":"rocketalert.lookup","updatedAt":"2026-03-08T17:34:19.312Z"},{"key":"ibillin","label":"Ibillin","lat":32.8218,"lon":35.1901,"source":"rocketalert.lookup","updatedAt":"2026-03-08T17:34:19.312Z"},{"key":"ibtin","label":"Ibtin","lat":32.76,"lon":35.1146,"source":"rocketalert.lookup","updatedAt":"2026-03-08T17:34:19.312Z"},{"key":"idmit","label":"Idmit","lat":33.0788,"lon":35.2095,"source":"rocketalert.lookup","updatedAt":"2026-03-08T17:34:19.312Z"},{"key":"iftach","label":"Iftach","lat":33.1283,"lon":35.552,"source":"rocketalert.lookup","updatedAt":"2026-03-08T17:34:19.312Z"},{"key":"ilut","label":"Ilut","lat":32.7173,"lon":35.2615,"source":"rocketalert.lookup","updatedAt":"2026-03-08T17:34:19.312Z"},{"key":"immanuel","label":"Immanuel","lat":32.1607,"lon":35.136,"source":"rocketalert.lookup","updatedAt":"2026-03-08T17:34:19.312Z"},{"key":"irus","label":"Irus","lat":31.9286,"lon":34.7766,"source":"rocketalert.lookup","updatedAt":"2026-03-08T17:34:19.312Z"},{"key":"isfiya","label":"Isfiya","lat":32.7207,"lon":35.0591,"source":"rocketalert.lookup","updatedAt":"2026-03-08T17:34:19.312Z"},{"key":"itamar","label":"Itamar","lat":32.1739,"lon":35.308,"source":"rocketalert.lookup","updatedAt":"2026-03-08T17:34:19.312Z"},{"key":"itzhar","label":"Itzhar","lat":32.1685,"lon":35.2359,"source":"rocketalert.lookup","updatedAt":"2026-03-08T17:34:19.312Z"},{"key":"jadeidi-makr","label":"Jadeidi-Makr","lat":32.9287,"lon":35.1506,"source":"rocketalert.lookup","updatedAt":"2026-03-08T17:34:19.312Z"},{"key":"jaljulia","label":"Jaljulia","lat":32.1525,"lon":34.954,"source":"rocketalert.lookup","updatedAt":"2026-03-08T17:34:19.312Z"},{"key":"ka'abiyye tabbash","label":"Ka'abiyye Tabbash","lat":32.7504,"lon":35.184,"source":"rocketalert.lookup","updatedAt":"2026-03-08T17:34:19.312Z"},{"key":"kabul","label":"Kabul","lat":32.87,"lon":35.2054,"source":"rocketalert.lookup","updatedAt":"2026-03-08T17:34:19.312Z"},{"key":"kafr bara","label":"Kafr Bara","lat":32.1309,"lon":34.9701,"source":"rocketalert.lookup","updatedAt":"2026-03-08T17:34:19.312Z"},{"key":"kafr misr","label":"Kafr Misr","lat":32.167567,"lon":34.894744,"source":"rocketalert.lookup","updatedAt":"2026-03-08T16:29:00.120Z"},{"key":"kannot","label":"Kannot","lat":31.8022,"lon":34.7509,"source":"rocketalert.lookup","updatedAt":"2026-03-08T17:34:19.312Z"},{"key":"kannot industrial zone","label":"Kannot Industrial Zone","lat":31.8013,"lon":34.7591,"source":"rocketalert.lookup","updatedAt":"2026-03-08T17:34:19.312Z"},{"key":"karmei yossef","label":"Karmei Yossef","lat":31.848,"lon":34.9213,"source":"rocketalert.lookup","updatedAt":"2026-03-08T17:34:19.312Z"},{"key":"karmia","label":"Karmia","lat":31.6027,"lon":34.5404,"source":"rocketalert.lookup","updatedAt":"2026-03-08T17:34:19.312Z"},{"key":"karnei shomron","label":"Karnei Shomron","lat":32.1716,"lon":35.0975,"source":"rocketalert.lookup","updatedAt":"2026-03-08T17:34:19.312Z"},{"key":"kaukab abu al-hija","label":"Kaukab Abu al-Hija","lat":32.8319,"lon":35.2487,"source":"rocketalert.lookup","updatedAt":"2026-03-08T17:34:19.312Z"},{"key":"kdumim","label":"Kdumim","lat":32.2124,"lon":35.1574,"source":"rocketalert.lookup","updatedAt":"2026-03-08T17:34:19.312Z"},{"key":"kella alon","label":"Kella Alon","lat":33.13181,"lon":35.68402,"source":"rocketalert.lookup","updatedAt":"2026-03-08T17:34:19.312Z"},{"key":"kerem beyavne","label":"Kerem BeYavne","lat":31.817,"lon":34.7236,"source":"rocketalert.lookup","updatedAt":"2026-03-08T17:34:19.312Z"},{"key":"kerem reim","label":"Kerem Reim","lat":31.9583,"lon":35.138,"source":"rocketalert.lookup","updatedAt":"2026-03-08T17:34:19.312Z"},{"key":"kfar achim","label":"Kfar Achim","lat":31.7459,"lon":34.7559,"source":"rocketalert.lookup","updatedAt":"2026-03-08T17:34:19.312Z"},{"key":"kfar aviv","label":"Kfar Aviv","lat":31.831,"lon":34.7226,"source":"rocketalert.lookup","updatedAt":"2026-03-08T17:34:19.312Z"},{"key":"kfar bilu","label":"Kfar Bilu","lat":31.870475,"lon":34.826734,"source":"rocketalert.lookup","updatedAt":"2026-03-08T17:34:19.312Z"},{"key":"kfar bin nun","label":"Kfar Bin Nun","lat":31.8617,"lon":34.9472,"source":"rocketalert.lookup","updatedAt":"2026-03-08T17:34:19.312Z"},{"key":"kfar biyalik","label":"Kfar Biyalik","lat":32.8214,"lon":35.0877,"source":"rocketalert.lookup","updatedAt":"2026-03-08T17:34:19.312Z"},{"key":"kfar blum","label":"Kfar Blum","lat":33.1725,"lon":35.6079,"source":"rocketalert.lookup","updatedAt":"2026-03-08T17:34:19.312Z"},{"key":"kfar chabad","label":"Kfar Chabad","lat":31.990144,"lon":34.849103,"source":"rocketalert.lookup","updatedAt":"2026-03-08T17:34:19.312Z"},{"key":"kfar daniel","label":"Kfar Daniel","lat":31.9335,"lon":34.9323,"source":"rocketalert.lookup","updatedAt":"2026-03-08T17:34:19.312Z"},{"key":"kfar galim","label":"Kfar Galim","lat":32.7662,"lon":34.9595,"source":"rocketalert.lookup","updatedAt":"2026-03-08T17:34:19.312Z"},{"key":"kfar giladi","label":"Kfar Giladi","lat":33.2421,"lon":35.5741,"source":"rocketalert.lookup","updatedAt":"2026-03-08T17:34:19.312Z"},{"key":"kfar hamaccabi","label":"Kfar HaMaccabi","lat":32.7918,"lon":35.1148,"source":"rocketalert.lookup","updatedAt":"2026-03-08T17:34:19.312Z"},{"key":"kfar hanagid","label":"Kfar HaNagid","lat":31.8871,"lon":34.7487,"source":"rocketalert.lookup","updatedAt":"2026-03-08T17:34:19.312Z"},{"key":"kfar haoranim","label":"Kfar HaOranim","lat":31.9199,"lon":35.0369,"source":"rocketalert.lookup","updatedAt":"2026-03-08T17:34:19.312Z"},{"key":"kfar hassidim","label":"Kfar Hassidim","lat":32.7523,"lon":35.0942,"source":"rocketalert.lookup","updatedAt":"2026-03-08T17:34:19.312Z"},{"key":"kfar hittim","label":"Kfar Hittim","lat":32.8,"lon":35.5033,"source":"rocketalert.lookup","updatedAt":"2026-03-08T17:34:19.312Z"},{"key":"kfar kassem","label":"Kfar Kassem","lat":32.1141,"lon":34.9728,"source":"rocketalert.lookup","updatedAt":"2026-03-08T17:34:19.312Z"},{"key":"kfar manda","label":"Kfar Manda","lat":32.8124,"lon":35.2586,"source":"rocketalert.lookup","updatedAt":"2026-03-08T17:34:19.312Z"},{"key":"kfar masaryk","label":"Kfar Masaryk","lat":32.8912,"lon":35.0984,"source":"rocketalert.lookup","updatedAt":"2026-03-08T17:34:19.312Z"},{"key":"kfar mordechai","label":"Kfar Mordechai","lat":31.8315,"lon":34.7566,"source":"rocketalert.lookup","updatedAt":"2026-03-08T17:34:19.312Z"},{"key":"kfar rut","label":"Kfar Rut","lat":31.9104,"lon":35.0353,"source":"rocketalert.lookup","updatedAt":"2026-03-08T17:34:19.312Z"},{"key":"kfar saba","label":"Kfar Saba","lat":32.1782,"lon":34.9076,"source":"rocketalert.lookup","updatedAt":"2026-03-08T17:34:19.312Z"},{"key":"kfar shmaryahu","label":"Kfar Shmaryahu","lat":32.1871,"lon":34.8231,"source":"rocketalert.lookup","updatedAt":"2026-03-08T16:29:00.120Z"},{"key":"kfar shmuel","label":"Kfar Shmuel","lat":31.8883,"lon":34.9348,"source":"rocketalert.lookup","updatedAt":"2026-03-08T17:34:19.312Z"},{"key":"kfar silver","label":"Kfar Silver","lat":31.673,"lon":34.6121,"source":"rocketalert.lookup","updatedAt":"2026-03-08T17:34:19.312Z"},{"key":"kfar sirkin","label":"Kfar Sirkin","lat":32.0767,"lon":34.9228,"source":"rocketalert.lookup","updatedAt":"2026-03-08T17:34:19.312Z"},{"key":"kfar szold","label":"Kfar Szold","lat":33.196,"lon":35.658,"source":"rocketalert.lookup","updatedAt":"2026-03-08T17:34:19.312Z"},{"key":"kfar tapuach","label":"Kfar Tapuach","lat":32.118,"lon":35.2498,"source":"rocketalert.lookup","updatedAt":"2026-03-08T17:34:19.312Z"},{"key":"kfar tikva","label":"Kfar Tikva","lat":32.7013,"lon":35.115,"source":"rocketalert.lookup","updatedAt":"2026-03-08T17:34:19.312Z"},{"key":"kfar truman","label":"Kfar Truman","lat":31.9805,"lon":34.9277,"source":"rocketalert.lookup","updatedAt":"2026-03-08T17:34:19.312Z"},{"key":"kfar warburg","label":"Kfar Warburg","lat":31.7187,"lon":34.7287,"source":"rocketalert.lookup","updatedAt":"2026-03-08T17:34:19.312Z"},{"key":"kfar yehoshua","label":"Kfar Yehoshua","lat":32.6816,"lon":35.152,"source":"rocketalert.lookup","updatedAt":"2026-03-08T17:34:19.312Z"},{"key":"kfar yehoshua train station","label":"Kfar Yehoshua Train Station","lat":32.6811,"lon":35.1246,"source":"rocketalert.lookup","updatedAt":"2026-03-08T17:34:19.312Z"},{"key":"kfar yuval","label":"Kfar Yuval","lat":33.2466,"lon":35.5964,"source":"rocketalert.lookup","updatedAt":"2026-03-08T17:34:19.312Z"},{"key":"kibutz dan","label":"Kibutz Dan","lat":33.2406,"lon":35.6523,"source":"rocketalert.lookup","updatedAt":"2026-03-08T17:34:19.312Z"},{"key":"kida","label":"Kida","lat":32.0514,"lon":35.3413,"source":"rocketalert.lookup","updatedAt":"2026-03-08T16:29:00.120Z"},{"key":"kidmat galil industrial zone","label":"Kidmat Galil Industrial Zone","lat":32.7854,"lon":35.4631,"source":"rocketalert.lookup","updatedAt":"2026-03-08T17:34:19.312Z"},{"key":"kidron","label":"Kidron","lat":31.8141,"lon":34.7955,"source":"rocketalert.lookup","updatedAt":"2026-03-08T17:34:19.312Z"},{"key":"kiryat atta","label":"Kiryat Atta","lat":32.8052,"lon":35.0925,"source":"rocketalert.lookup","updatedAt":"2026-03-08T17:34:19.312Z"},{"key":"kiryat bialik industrial zone","label":"Kiryat Bialik Industrial Zone","lat":32.8671,"lon":35.0988,"source":"rocketalert.lookup","updatedAt":"2026-03-08T17:34:19.312Z"},{"key":"kiryat biyalik","label":"Kiryat Biyalik","lat":32.8322,"lon":35.0884,"source":"rocketalert.lookup","updatedAt":"2026-03-08T17:34:19.312Z"},{"key":"kiryat ekron","label":"Kiryat Ekron","lat":31.8625,"lon":34.822,"source":"rocketalert.lookup","updatedAt":"2026-03-08T17:34:19.312Z"},{"key":"kiryat malachi","label":"Kiryat Malachi","lat":31.7302,"lon":34.747,"source":"rocketalert.lookup","updatedAt":"2026-03-08T17:34:19.312Z"},{"key":"kiryat motzkin","label":"Kiryat Motzkin","lat":32.8382,"lon":35.0795,"source":"rocketalert.lookup","updatedAt":"2026-03-08T17:34:19.312Z"},{"key":"kiryat netafim","label":"Kiryat Netafim","lat":32.1173,"lon":35.1121,"source":"rocketalert.lookup","updatedAt":"2026-03-08T17:34:19.312Z"},{"key":"kiryat ono","label":"Kiryat Ono","lat":32.0549,"lon":34.8589,"source":"rocketalert.lookup","updatedAt":"2026-03-08T17:34:19.312Z"},{"key":"kiryat shmona","label":"Kiryat Shmona","lat":33.2079,"lon":35.5702,"source":"rocketalert.lookup","updatedAt":"2026-03-08T17:34:19.312Z"},{"key":"kiryat tivon - beit zaid","label":"Kiryat Tivon - Beit Zaid","lat":32.7132,"lon":35.1226,"source":"rocketalert.lookup","updatedAt":"2026-03-08T17:34:19.312Z"},{"key":"kiryat yam","label":"Kiryat Yam","lat":32.8493,"lon":35.0689,"source":"rocketalert.lookup","updatedAt":"2026-03-08T17:34:19.312Z"},{"key":"kishon prison","label":"Kishon Prison","lat":32.7262,"lon":35.0915,"source":"rocketalert.lookup","updatedAt":"2026-03-08T17:34:19.312Z"},{"key":"kokhav hashahar","label":"Kokhav HaShahar","lat":31.9603,"lon":35.3494,"source":"rocketalert.lookup","updatedAt":"2026-03-08T16:29:00.120Z"},{"key":"kokhav ya'ir - tzur yigal","label":"Kokhav Ya'ir - Tzur Yigal","lat":32.2209,"lon":34.9924,"source":"rocketalert.lookup","updatedAt":"2026-03-08T16:29:00.120Z"},{"key":"koranit","label":"Koranit","lat":32.8444,"lon":35.2519,"source":"rocketalert.lookup","updatedAt":"2026-03-08T17:34:19.312Z"},{"key":"kvutzat yavne","label":"Kvutzat Yavne","lat":31.814,"lon":34.7191,"source":"rocketalert.lookup","updatedAt":"2026-03-08T17:34:19.312Z"},{"key":"lapid","label":"Lapid","lat":31.917,"lon":35.0318,"source":"rocketalert.lookup","updatedAt":"2026-03-08T17:34:19.312Z"},{"key":"lehavot habashan","label":"Lehavot HaBashan","lat":33.1412,"lon":35.6479,"source":"rocketalert.lookup","updatedAt":"2026-03-08T17:34:19.312Z"},{"key":"lehman","label":"Lehman","lat":33.0587,"lon":35.1118,"source":"rocketalert.lookup","updatedAt":"2026-03-08T17:34:19.312Z"},{"key":"lev ha-hula","label":"Lev Ha-Hula","lat":33.1103,"lon":35.5819,"source":"rocketalert.lookup","updatedAt":"2026-03-08T17:34:19.312Z"},{"key":"lod","label":"Lod","lat":31.951,"lon":34.8881,"source":"rocketalert.lookup","updatedAt":"2026-03-08T17:34:19.312Z"},{"key":"ma'aleh ephraim","label":"Ma'aleh Ephraim","lat":32.0713,"lon":35.4039,"source":"rocketalert.lookup","updatedAt":"2026-03-08T16:34:06.108Z"},{"key":"ma'aleh levona","label":"Ma'aleh Levona","lat":32.0544,"lon":35.2395,"source":"rocketalert.lookup","updatedAt":"2026-03-08T17:34:19.312Z"},{"key":"ma'ayan baruch","label":"Ma'ayan Baruch","lat":33.2393,"lon":35.6094,"source":"rocketalert.lookup","updatedAt":"2026-03-08T17:34:19.312Z"},{"key":"maas","label":"Maas","lat":32.0635,"lon":34.8926,"source":"rocketalert.lookup","updatedAt":"2026-03-08T17:34:19.312Z"},{"key":"magshimim","label":"Magshimim","lat":32.0444,"lon":34.8998,"source":"rocketalert.lookup","updatedAt":"2026-03-08T17:34:19.312Z"},{"key":"majdal shams","label":"Majdal Shams","lat":33.2691,"lon":35.7721,"source":"rocketalert.lookup","updatedAt":"2026-03-08T17:34:19.312Z"},{"key":"malkia","label":"Malkia","lat":33.0986,"lon":35.5096,"source":"rocketalert.lookup","updatedAt":"2026-03-08T17:34:19.312Z"},{"key":"manara","label":"Manara","lat":33.1954,"lon":35.5437,"source":"rocketalert.lookup","updatedAt":"2026-03-08T17:34:19.312Z"},{"key":"manof","label":"Manof","lat":32.8533,"lon":35.2374,"source":"rocketalert.lookup","updatedAt":"2026-03-08T17:34:19.312Z"},{"key":"manot","label":"Manot","lat":33.0387,"lon":35.1952,"source":"rocketalert.lookup","updatedAt":"2026-03-08T17:34:19.312Z"},{"key":"manshiya zabda","label":"Manshiya Zabda","lat":32.7062,"lon":35.1924,"source":"rocketalert.lookup","updatedAt":"2026-03-08T17:34:19.312Z"},{"key":"maon tzofia","label":"Maon Tzofia","lat":31.8557,"lon":34.7379,"source":"rocketalert.lookup","updatedAt":"2026-03-08T17:34:19.312Z"},{"key":"margaliot","label":"Margaliot","lat":33.2165,"lon":35.5444,"source":"rocketalert.lookup","updatedAt":"2026-03-08T17:34:19.312Z"},{"key":"mas'ade","label":"Mas'ade","lat":33.2321,"lon":35.7556,"source":"rocketalert.lookup","updatedAt":"2026-03-08T17:34:19.312Z"},{"key":"maskiot","label":"Maskiot","lat":32.3179,"lon":35.5028,"source":"rocketalert.lookup","updatedAt":"2026-03-08T17:34:19.312Z"},{"key":"masuot itzhak","label":"Masuot Itzhak","lat":31.7026,"lon":34.69,"source":"rocketalert.lookup","updatedAt":"2026-03-08T17:34:19.312Z"},{"key":"matan","label":"Matan","lat":32.1594,"lon":34.9732,"source":"rocketalert.lookup","updatedAt":"2026-03-08T17:34:19.312Z"},{"key":"matityahu","label":"Matityahu","lat":31.9297,"lon":35.035,"source":"rocketalert.lookup","updatedAt":"2026-03-08T17:34:19.312Z"},{"key":"matzliach","label":"Matzliach","lat":31.9064,"lon":34.8713,"source":"rocketalert.lookup","updatedAt":"2026-03-08T17:34:19.312Z"},{"key":"mavki'im","label":"Mavki'im","lat":31.6225,"lon":34.5774,"source":"rocketalert.lookup","updatedAt":"2026-03-08T17:34:19.312Z"},{"key":"mazkeret batya","label":"Mazkeret Batya","lat":31.8532,"lon":34.8424,"source":"rocketalert.lookup","updatedAt":"2026-03-08T17:34:19.312Z"},{"key":"mazor","label":"Mazor","lat":32.0507,"lon":34.9314,"source":"rocketalert.lookup","updatedAt":"2026-03-08T17:34:19.312Z"},{"key":"megadim","label":"Megadim","lat":32.7277,"lon":34.9609,"source":"rocketalert.lookup","updatedAt":"2026-03-08T17:34:19.312Z"},{"key":"megadlim","label":"Megadlim","lat":32.0899,"lon":35.3426,"source":"rocketalert.lookup","updatedAt":"2026-03-08T16:29:00.120Z"},{"key":"mehola","label":"Mehola","lat":32.3653,"lon":35.516,"source":"rocketalert.lookup","updatedAt":"2026-03-08T17:34:19.312Z"},{"key":"meishar","label":"Meishar","lat":31.8159,"lon":34.7526,"source":"rocketalert.lookup","updatedAt":"2026-03-08T17:34:19.312Z"},{"key":"mekhora","label":"Mekhora","lat":32.1642,"lon":35.4236,"source":"rocketalert.lookup","updatedAt":"2026-03-08T16:29:00.120Z"},{"key":"merkaz shapira","label":"Merkaz Shapira","lat":31.6969,"lon":34.7073,"source":"rocketalert.lookup","updatedAt":"2026-03-08T17:34:19.312Z"},{"key":"merom golan","label":"Merom Golan","lat":33.1326,"lon":35.7771,"source":"rocketalert.lookup","updatedAt":"2026-03-08T17:34:19.312Z"},{"key":"metulla","label":"Metulla","lat":33.2772,"lon":35.5782,"source":"rocketalert.lookup","updatedAt":"2026-03-08T17:34:19.312Z"},{"key":"metzuba","label":"Metzuba","lat":33.0623,"lon":35.1557,"source":"rocketalert.lookup","updatedAt":"2026-03-08T17:34:19.312Z"},{"key":"mevo modi'im","label":"Mevo Modi'im","lat":31.9339,"lon":34.988,"source":"rocketalert.lookup","updatedAt":"2026-03-08T17:34:19.312Z"},{"key":"mevuot hermon regional council","label":"Mevuot Hermon Regional Council","lat":33.1209,"lon":35.5699,"source":"rocketalert.lookup","updatedAt":"2026-03-08T17:34:19.312Z"},{"key":"mikveh israel","label":"Mikveh Israel","lat":32.03,"lon":34.7829,"source":"rocketalert.lookup","updatedAt":"2026-03-08T17:34:19.312Z"},{"key":"milouot industrial zone north","label":"Milouot Industrial Zone North","lat":33.0585,"lon":35.1042,"source":"rocketalert.lookup","updatedAt":"2026-03-08T17:34:19.312Z"},{"key":"mini israel - nachshon","label":"Mini Israel - Nachshon","lat":31.8425,"lon":34.9685,"source":"rocketalert.lookup","updatedAt":"2026-03-08T17:34:19.312Z"},{"key":"misgav am","label":"Misgav Am","lat":33.2476,"lon":35.5485,"source":"rocketalert.lookup","updatedAt":"2026-03-08T17:34:19.312Z"},{"key":"misgav dov","label":"Misgav Dov","lat":31.8191,"lon":34.7392,"source":"rocketalert.lookup","updatedAt":"2026-03-08T17:34:19.312Z"},{"key":"misgav regional center","label":"Misgav Regional Center","lat":32.8588,"lon":35.2598,"source":"rocketalert.lookup","updatedAt":"2026-03-08T17:34:19.312Z"},{"key":"mishan","label":"Mishan","lat":31.6569,"lon":34.6216,"source":"rocketalert.lookup","updatedAt":"2026-03-08T17:34:19.312Z"},{"key":"mishmar ayalon","label":"Mishmar Ayalon","lat":31.8725,"lon":34.9433,"source":"rocketalert.lookup","updatedAt":"2026-03-08T17:34:19.312Z"},{"key":"mishmar david","label":"Mishmar David","lat":31.8236,"lon":34.9007,"source":"rocketalert.lookup","updatedAt":"2026-03-08T17:34:19.312Z"},{"key":"mishmar hashiva","label":"Mishmar HaShiva","lat":32.0109,"lon":34.8223,"source":"rocketalert.lookup","updatedAt":"2026-03-08T17:34:19.312Z"},{"key":"mitzpeh","label":"Mitzpeh","lat":32.79,"lon":35.5079,"source":"rocketalert.lookup","updatedAt":"2026-03-08T17:34:19.312Z"},{"key":"mitzpeh aviv","label":"Mitzpeh Aviv","lat":32.837951,"lon":35.201059,"source":"rocketalert.lookup","updatedAt":"2026-03-08T17:34:19.312Z"},{"key":"mlkishua rehabilitation village","label":"Mlkishua Rehabilitation Village","lat":32.4386,"lon":35.4128,"source":"rocketalert.lookup","updatedAt":"2026-03-08T17:34:19.312Z"},{"key":"modi'in - ishpro center","label":"Modi'in - Ishpro Center","lat":31.8898056,"lon":34.9649992,"source":"rocketalert.lookup","updatedAt":"2026-03-08T17:34:19.312Z"},{"key":"modi'in - ligad center","label":"Modi'in - Ligad Center","lat":31.9211897,"lon":34.9701743,"source":"rocketalert.lookup","updatedAt":"2026-03-08T17:34:19.312Z"},{"key":"modi'in illit","label":"Modi'in Illit","lat":31.9325,"lon":35.0423,"source":"rocketalert.lookup","updatedAt":"2026-03-08T17:34:19.312Z"},{"key":"modi'in maccabim re'ut","label":"Modi'in Maccabim Re'ut","lat":31.8903,"lon":35.0104,"source":"rocketalert.lookup","updatedAt":"2026-03-08T17:34:19.312Z"},{"key":"morasha cemetery","label":"Morasha Cemetery","lat":32.1206,"lon":34.8549,"source":"rocketalert.lookup","updatedAt":"2026-03-08T17:34:19.312Z"},{"key":"moreshet","label":"Moreshet","lat":32.8261,"lon":35.232,"source":"rocketalert.lookup","updatedAt":"2026-03-08T17:34:19.312Z"},{"key":"na'aleh","label":"Na'aleh","lat":31.9626,"lon":35.066,"source":"rocketalert.lookup","updatedAt":"2026-03-08T17:34:19.312Z"},{"key":"na'an","label":"Na'an","lat":31.8832,"lon":34.8592,"source":"rocketalert.lookup","updatedAt":"2026-03-08T17:34:19.312Z"},{"key":"nachliel","label":"Nachliel","lat":31.9735,"lon":35.1404,"source":"rocketalert.lookup","updatedAt":"2026-03-08T17:34:19.312Z"},{"key":"nachshonim","label":"Nachshonim","lat":32.0632,"lon":34.947,"source":"rocketalert.lookup","updatedAt":"2026-03-08T17:34:19.312Z"},{"key":"nahalal","label":"Nahalal","lat":32.6908,"lon":35.1961,"source":"rocketalert.lookup","updatedAt":"2026-03-08T17:34:19.312Z"},{"key":"nechalim","label":"Nechalim","lat":32.0586,"lon":34.9136,"source":"rocketalert.lookup","updatedAt":"2026-03-08T17:34:19.312Z"},{"key":"neot kedumim","label":"Neot Kedumim","lat":31.9479,"lon":34.9728,"source":"rocketalert.lookup","updatedAt":"2026-03-08T17:34:19.312Z"},{"key":"neot mordechai","label":"Neot Mordechai","lat":33.1598,"lon":35.5956,"source":"rocketalert.lookup","updatedAt":"2026-03-08T17:34:19.312Z"},{"key":"neria","label":"Neria","lat":31.954293,"lon":35.127604,"source":"rocketalert.lookup","updatedAt":"2026-03-08T17:34:19.312Z"},{"key":"nesher","label":"Nesher","lat":32.7649,"lon":35.0492,"source":"rocketalert.lookup","updatedAt":"2026-03-08T17:34:19.312Z"},{"key":"nesher industrial zone","label":"Nesher Industrial Zone (Ramla)","lat":31.9179,"lon":34.892,"source":"rocketalert.lookup","updatedAt":"2026-03-08T17:34:19.312Z"},{"key":"ness ziona","label":"Ness Ziona","lat":31.9321,"lon":34.8013,"source":"rocketalert.lookup","updatedAt":"2026-03-08T17:34:19.312Z"},{"key":"neta'im","label":"Neta'im","lat":31.9457,"lon":34.7751,"source":"rocketalert.lookup","updatedAt":"2026-03-08T17:34:19.312Z"},{"key":"netiv hagdud","label":"Netiv HaGdud","lat":31.9894,"lon":35.4433,"source":"rocketalert.lookup","updatedAt":"2026-03-08T16:34:06.108Z"},{"key":"netua","label":"Netua","lat":33.0654,"lon":35.3234,"source":"rocketalert.lookup","updatedAt":"2026-03-08T17:34:19.312Z"},{"key":"netzer hazani","label":"Netzer Hazani","lat":31.8214,"lon":34.8626,"source":"rocketalert.lookup","updatedAt":"2026-03-08T17:34:19.312Z"},{"key":"netzer sireni","label":"Netzer Sireni","lat":31.9228,"lon":34.8212,"source":"rocketalert.lookup","updatedAt":"2026-03-08T17:34:19.312Z"},{"key":"neveh ativ","label":"Neveh Ativ","lat":33.26202,"lon":35.740574,"source":"rocketalert.lookup","updatedAt":"2026-03-08T17:34:19.312Z"},{"key":"neveh mivtach","label":"Neveh Mivtach","lat":31.8068,"lon":34.7412,"source":"rocketalert.lookup","updatedAt":"2026-03-08T17:34:19.312Z"},{"key":"neveh yam","label":"Neveh Yam","lat":32.6798,"lon":34.9319,"source":"rocketalert.lookup","updatedAt":"2026-03-08T17:34:19.312Z"},{"key":"neveh yamin","label":"Neveh Yamin","lat":32.1717,"lon":34.9394,"source":"rocketalert.lookup","updatedAt":"2026-03-08T17:34:19.312Z"},{"key":"neveh yarak","label":"Neveh Yarak","lat":32.1327,"lon":34.9255,"source":"rocketalert.lookup","updatedAt":"2026-03-08T17:34:19.312Z"},{"key":"nili","label":"Nili","lat":31.9623,"lon":35.0458,"source":"rocketalert.lookup","updatedAt":"2026-03-08T17:34:19.312Z"},{"key":"nimrod","label":"Nimrod","lat":33.2453,"lon":35.7516,"source":"rocketalert.lookup","updatedAt":"2026-03-08T17:34:19.312Z"},{"key":"nir eliyahu","label":"Nir Eliyahu","lat":32.1976,"lon":34.9494,"source":"rocketalert.lookup","updatedAt":"2026-03-08T16:29:00.120Z"},{"key":"nir etzion industrial zone","label":"Nir Etzion Industrial Zone","lat":32.7019,"lon":34.973,"source":"rocketalert.lookup","updatedAt":"2026-03-08T17:34:19.312Z"},{"key":"nir galim","label":"Nir Galim","lat":31.8255,"lon":34.6825,"source":"rocketalert.lookup","updatedAt":"2026-03-08T17:34:19.312Z"},{"key":"nir israel","label":"Nir Israel","lat":31.6922,"lon":34.6381,"source":"rocketalert.lookup","updatedAt":"2026-03-08T17:34:19.312Z"},{"key":"nir zvi","label":"Nir Zvi","lat":31.9544,"lon":34.8615,"source":"rocketalert.lookup","updatedAt":"2026-03-08T17:34:19.312Z"},{"key":"niran","label":"Niran","lat":31.9682,"lon":35.4539,"source":"rocketalert.lookup","updatedAt":"2026-03-08T16:34:06.108Z"},{"key":"nirit","label":"Nirit","lat":32.1462,"lon":34.9848,"source":"rocketalert.lookup","updatedAt":"2026-03-08T17:34:19.312Z"},{"key":"nitzan","label":"Nitzan","lat":31.7375,"lon":34.6308,"source":"rocketalert.lookup","updatedAt":"2026-03-08T17:34:19.312Z"},{"key":"nitzanim","label":"Nitzanim","lat":31.7178,"lon":34.6346,"source":"rocketalert.lookup","updatedAt":"2026-03-08T17:34:19.312Z"},{"key":"nofech","label":"Nofech","lat":32.0437,"lon":34.9203,"source":"rocketalert.lookup","updatedAt":"2026-03-08T17:34:19.312Z"},{"key":"nofei nehemiah","label":"Nofei Nehemiah","lat":32.0982,"lon":35.2359,"source":"rocketalert.lookup","updatedAt":"2026-03-08T17:34:19.312Z"},{"key":"nofim","label":"Nofim","lat":32.1555,"lon":35.0998,"source":"rocketalert.lookup","updatedAt":"2026-03-08T17:34:19.312Z"},{"key":"nofit","label":"Nofit","lat":32.7634,"lon":35.1483,"source":"rocketalert.lookup","updatedAt":"2026-03-08T17:34:19.312Z"},{"key":"odem","label":"Odem","lat":33.1934,"lon":35.7496,"source":"rocketalert.lookup","updatedAt":"2026-03-08T17:34:19.312Z"},{"key":"ofarim","label":"Ofarim","lat":32.0186,"lon":35.0446,"source":"rocketalert.lookup","updatedAt":"2026-03-08T17:34:19.312Z"},{"key":"ofra","label":"Ofra","lat":31.9551,"lon":35.2603,"source":"rocketalert.lookup","updatedAt":"2026-03-08T16:29:00.120Z"},{"key":"or yehuda","label":"Or Yehuda","lat":32.0297,"lon":34.8562,"source":"rocketalert.lookup","updatedAt":"2026-03-08T17:34:19.312Z"},{"key":"oranim","label":"Oranim","lat":32.7112,"lon":35.1096,"source":"rocketalert.lookup","updatedAt":"2026-03-08T17:34:19.312Z"},{"key":"oranit","label":"Oranit","lat":32.1319,"lon":34.9908,"source":"rocketalert.lookup","updatedAt":"2026-03-08T17:34:19.312Z"},{"key":"orot","label":"Orot","lat":31.74176,"lon":34.734758,"source":"rocketalert.lookup","updatedAt":"2026-03-08T17:34:19.312Z"},{"key":"ortal","label":"Ortal","lat":33.0862,"lon":35.7587,"source":"rocketalert.lookup","updatedAt":"2026-03-08T17:34:19.312Z"},{"key":"paduel","label":"Paduel","lat":32.0625,"lon":35.0526,"source":"rocketalert.lookup","updatedAt":"2026-03-08T17:34:19.312Z"},{"key":"palmachim","label":"Palmachim","lat":31.9327,"lon":34.7069,"source":"rocketalert.lookup","updatedAt":"2026-03-08T17:34:19.312Z"},{"key":"palmachin industrial park","label":"Palmachin Industrial Park","lat":31.9532,"lon":34.7675,"source":"rocketalert.lookup","updatedAt":"2026-03-08T17:34:19.312Z"},{"key":"pdaya","label":"Pdaya","lat":31.8578,"lon":34.8838,"source":"rocketalert.lookup","updatedAt":"2026-03-08T17:34:19.312Z"},{"key":"petach tikva","label":"Petach Tikva","lat":32.084,"lon":34.8878,"source":"rocketalert.lookup","updatedAt":"2026-03-08T17:34:19.312Z"},{"key":"petza'el","label":"Petza'el","lat":32.0435,"lon":35.4438,"source":"rocketalert.lookup","updatedAt":"2026-03-08T16:34:06.108Z"},{"key":"poria - neve oved","label":"Poria - Neve Oved","lat":32.7438,"lon":35.5381,"source":"rocketalert.lookup","updatedAt":"2026-03-08T17:34:19.312Z"},{"key":"ptachia","label":"Ptachia","lat":31.867,"lon":34.8869,"source":"rocketalert.lookup","updatedAt":"2026-03-08T17:34:19.312Z"},{"key":"ra'anana","label":"Ra'anana","lat":32.1848,"lon":34.8713,"source":"rocketalert.lookup","updatedAt":"2026-03-08T16:29:00.120Z"},{"key":"rakefet","label":"Rakefet","lat":32.8556,"lon":35.2642,"source":"rocketalert.lookup","updatedAt":"2026-03-08T17:34:19.312Z"},{"key":"ramat gan - east","label":"Ramat Gan - East","lat":32.0529,"lon":34.8416,"source":"rocketalert.lookup","updatedAt":"2026-03-08T17:34:19.312Z"},{"key":"ramat gan - west","label":"Ramat Gan - West","lat":32.0706,"lon":34.8275,"source":"rocketalert.lookup","updatedAt":"2026-03-08T17:34:19.312Z"},{"key":"ramat hakovesh","label":"Ramat HaKovesh","lat":32.2183,"lon":34.9383,"source":"rocketalert.lookup","updatedAt":"2026-03-08T16:29:00.120Z"},{"key":"ramat hasharon","label":"Ramat HaSharon","lat":32.1378,"lon":34.8403,"source":"rocketalert.lookup","updatedAt":"2026-03-08T17:34:19.312Z"},{"key":"ramat ishai","label":"Ramat Ishai","lat":32.704,"lon":35.166,"source":"rocketalert.lookup","updatedAt":"2026-03-08T17:34:19.312Z"},{"key":"ramat trump","label":"Ramat Trump","lat":33.1328,"lon":35.6897,"source":"rocketalert.lookup","updatedAt":"2026-03-08T17:34:19.312Z"},{"key":"ramat yochana","label":"Ramat Yochana","lat":32.7935,"lon":35.1222,"source":"rocketalert.lookup","updatedAt":"2026-03-08T17:34:19.312Z"},{"key":"ramla","label":"Ramla","lat":31.9316,"lon":34.8729,"source":"rocketalert.lookup","updatedAt":"2026-03-08T17:34:19.312Z"},{"key":"ramot hashavim","label":"Ramot HaShavim","lat":32.1651,"lon":34.8815,"source":"rocketalert.lookup","updatedAt":"2026-03-08T16:29:00.120Z"},{"key":"ramot meir","label":"Ramot Meir","lat":31.8744,"lon":34.8552,"source":"rocketalert.lookup","updatedAt":"2026-03-08T17:34:19.312Z"},{"key":"ramot naftali","label":"Ramot Naftali","lat":33.1024,"lon":35.5533,"source":"rocketalert.lookup","updatedAt":"2026-03-08T17:34:19.312Z"},{"key":"ras ali","label":"Ras Ali","lat":32.7729,"lon":35.1555,"source":"rocketalert.lookup","updatedAt":"2026-03-08T17:34:19.312Z"},{"key":"re'em industrial park","label":"Re'em Industrial Park","lat":31.7682,"lon":34.7552,"source":"rocketalert.lookup","updatedAt":"2026-03-08T17:34:19.312Z"},{"key":"rechasim","label":"Rechasim","lat":32.7493,"lon":35.0996,"source":"rocketalert.lookup","updatedAt":"2026-03-08T17:34:19.312Z"},{"key":"rechelim","label":"Rechelim","lat":32.1025,"lon":35.2578,"source":"rocketalert.lookup","updatedAt":"2026-03-08T17:34:19.312Z"},{"key":"rehovot","label":"Rehovot","lat":31.8928,"lon":34.8113,"source":"rocketalert.lookup","updatedAt":"2026-03-08T17:34:19.312Z"},{"key":"reineh","label":"Reineh","lat":32.7199,"lon":35.3177,"source":"rocketalert.lookup","updatedAt":"2026-03-08T17:34:19.312Z"},{"key":"revadim industrial zone","label":"Revadim Industrial Zone","lat":31.7855,"lon":34.822,"source":"rocketalert.lookup","updatedAt":"2026-03-08T17:34:19.312Z"},{"key":"revava","label":"Revava","lat":32.1187,"lon":35.1296,"source":"rocketalert.lookup","updatedAt":"2026-03-08T17:34:19.312Z"},{"key":"rimonim","label":"Rimonim","lat":31.9354,"lon":35.3405,"source":"rocketalert.lookup","updatedAt":"2026-03-08T16:29:00.120Z"},{"key":"rinatya","label":"Rinatya","lat":32.0444,"lon":34.9285,"source":"rocketalert.lookup","updatedAt":"2026-03-08T17:34:19.312Z"},{"key":"rishon lezion - east","label":"Rishon LeZion - East","lat":31.9723,"lon":34.8066,"source":"rocketalert.lookup","updatedAt":"2026-03-08T17:34:19.312Z"},{"key":"rishon lezion - west","label":"Rishon LeZion - West","lat":31.981,"lon":34.7679,"source":"rocketalert.lookup","updatedAt":"2026-03-08T17:34:19.312Z"},{"key":"roee","label":"Roee","lat":32.2475,"lon":35.4895,"source":"rocketalert.lookup","updatedAt":"2026-03-08T17:34:19.312Z"},{"key":"rosh haayin","label":"Rosh HaAyin","lat":32.0958,"lon":34.9522,"source":"rocketalert.lookup","updatedAt":"2026-03-08T17:34:19.312Z"},{"key":"rosh hanikra","label":"Rosh HaNikra","lat":33.0861,"lon":35.1135,"source":"rocketalert.lookup","updatedAt":"2026-03-08T17:34:19.312Z"},{"key":"rosh ha’ayin train station","label":"Rosh Ha’Ayin Train Station","lat":32.1209,"lon":34.9345,"source":"rocketalert.lookup","updatedAt":"2026-03-08T17:34:19.312Z"},{"key":"rotem","label":"Rotem","lat":32.3366,"lon":35.5186,"source":"rocketalert.lookup","updatedAt":"2026-03-08T17:34:19.312Z"},{"key":"rumat al-heib","label":"Rumat al-Heib","lat":32.7776,"lon":35.3057,"source":"rocketalert.lookup","updatedAt":"2026-03-08T17:34:19.312Z"},{"key":"salit","label":"Salit","lat":32.2426,"lon":35.0513,"source":"rocketalert.lookup","updatedAt":"2026-03-08T16:29:00.120Z"},{"key":"savyon","label":"Savyon","lat":32.0456,"lon":34.8766,"source":"rocketalert.lookup","updatedAt":"2026-03-08T17:34:19.312Z"},{"key":"sawad humeria","label":"Sawad Humeria","lat":32.7669,"lon":35.1682,"source":"rocketalert.lookup","updatedAt":"2026-03-08T17:34:19.312Z"},{"key":"sdeh eliezer","label":"Sdeh Eliezer","lat":33.0465,"lon":35.5653,"source":"rocketalert.lookup","updatedAt":"2026-03-08T17:34:19.312Z"},{"key":"sdeh nechemia","label":"Sdeh Nechemia","lat":33.1882,"lon":35.6231,"source":"rocketalert.lookup","updatedAt":"2026-03-08T17:34:19.312Z"},{"key":"sdeh uziahu","label":"Sdeh Uziahu","lat":31.7584,"lon":34.6782,"source":"rocketalert.lookup","updatedAt":"2026-03-08T17:34:19.312Z"},{"key":"sdeh yacov","label":"Sdeh Yacov","lat":32.6976,"lon":35.1413,"source":"rocketalert.lookup","updatedAt":"2026-03-08T17:34:19.312Z"},{"key":"sdei hemed","label":"Sdei Hemed","lat":32.1585,"lon":34.9428,"source":"rocketalert.lookup","updatedAt":"2026-03-08T17:34:19.312Z"},{"key":"sha'al","label":"Sha'al","lat":33.1165,"lon":35.7188,"source":"rocketalert.lookup","updatedAt":"2026-03-08T17:34:19.312Z"},{"key":"sha'ar haamakim","label":"Sha'ar HaAmakim","lat":32.7226,"lon":35.1106,"source":"rocketalert.lookup","updatedAt":"2026-03-08T17:34:19.312Z"},{"key":"sha'ar na'aman industrial zone","label":"Sha'ar Na'aman Industrial Zone","lat":32.8805,"lon":35.0976,"source":"rocketalert.lookup","updatedAt":"2026-03-08T17:34:19.312Z"},{"key":"sha'arei tikva","label":"Sha'arei Tikva","lat":32.1207,"lon":35.027,"source":"rocketalert.lookup","updatedAt":"2026-03-08T17:34:19.312Z"},{"key":"shadmot mechola","label":"Shadmot Mechola","lat":32.3477,"lon":35.5306,"source":"rocketalert.lookup","updatedAt":"2026-03-08T17:34:19.312Z"},{"key":"shamir","label":"Shamir","lat":33.1668,"lon":35.66,"source":"rocketalert.lookup","updatedAt":"2026-03-08T17:34:19.312Z"},{"key":"shavei shomron","label":"Shavei Shomron","lat":32.2637,"lon":35.1834,"source":"rocketalert.lookup","updatedAt":"2026-03-08T17:34:19.312Z"},{"key":"shdema","label":"Shdema","lat":31.8338,"lon":34.7401,"source":"rocketalert.lookup","updatedAt":"2026-03-08T17:34:19.312Z"},{"key":"shear yeshuv","label":"Shear Yeshuv","lat":33.2263,"lon":35.6468,"source":"rocketalert.lookup","updatedAt":"2026-03-08T17:34:19.312Z"},{"key":"shekhanya","label":"Shekhanya","lat":32.8492,"lon":35.2467,"source":"rocketalert.lookup","updatedAt":"2026-03-08T17:34:19.312Z"},{"key":"shfaram","label":"Shfaram","lat":32.8058,"lon":35.17,"source":"rocketalert.lookup","updatedAt":"2026-03-08T17:34:19.312Z"},{"key":"shilat","label":"Shilat","lat":31.9212,"lon":35.0146,"source":"rocketalert.lookup","updatedAt":"2026-03-08T17:34:19.312Z"},{"key":"shilo","label":"Shilo","lat":32.0544,"lon":35.2991,"source":"rocketalert.lookup","updatedAt":"2026-03-08T16:29:00.120Z"},{"key":"shimshit","label":"Shimshit","lat":32.7325,"lon":35.2465,"source":"rocketalert.lookup","updatedAt":"2026-03-08T17:34:19.312Z"},{"key":"shlomi","label":"Shlomi","lat":33.0726,"lon":35.1459,"source":"rocketalert.lookup","updatedAt":"2026-03-08T17:34:19.312Z"},{"key":"shoham","label":"Shoham","lat":31.9971,"lon":34.9469,"source":"rocketalert.lookup","updatedAt":"2026-03-08T17:34:19.312Z"},{"key":"shomera","label":"Shomera","lat":33.0825,"lon":35.282,"source":"rocketalert.lookup","updatedAt":"2026-03-08T17:34:19.312Z"},{"key":"shtula","label":"Shtula","lat":33.0859,"lon":35.3156,"source":"rocketalert.lookup","updatedAt":"2026-03-08T17:34:19.312Z"},{"key":"shtulim","label":"Shtulim","lat":31.7737,"lon":34.6844,"source":"rocketalert.lookup","updatedAt":"2026-03-08T17:34:19.312Z"},{"key":"shvut rachel","label":"Shvut Rachel","lat":32.0545,"lon":35.3107,"source":"rocketalert.lookup","updatedAt":"2026-03-08T16:29:00.120Z"},{"key":"sitria","label":"Sitria","lat":31.8899,"lon":34.8421,"source":"rocketalert.lookup","updatedAt":"2026-03-08T17:34:19.312Z"},{"key":"snir","label":"Snir","lat":33.2403,"lon":35.677,"source":"rocketalert.lookup","updatedAt":"2026-03-08T17:34:19.312Z"},{"key":"southern sharon regional center","label":"Southern Sharon Regional Center","lat":32.1336,"lon":34.912,"source":"rocketalert.lookup","updatedAt":"2026-03-08T17:34:19.312Z"},{"key":"talmei yehiel","label":"Talmei Yehiel","lat":31.7536,"lon":34.7643,"source":"rocketalert.lookup","updatedAt":"2026-03-08T17:34:19.312Z"},{"key":"talmon","label":"Talmon","lat":31.9395,"lon":35.1331,"source":"rocketalert.lookup","updatedAt":"2026-03-08T17:34:19.312Z"},{"key":"tamra","label":"Tamra","lat":32.8522,"lon":35.2013,"source":"rocketalert.lookup","updatedAt":"2026-03-08T17:34:19.312Z"},{"key":"tayibe","label":"Tayibe","lat":32.2669,"lon":35.0097,"source":"rocketalert.lookup","updatedAt":"2026-03-08T16:29:00.120Z"},{"key":"tel aviv - across the yarkon","label":"Tel Aviv - Across the Yarkon","lat":32.1213,"lon":34.8203,"source":"rocketalert.lookup","updatedAt":"2026-03-08T17:34:19.312Z"},{"key":"tel aviv - city center","label":"Tel Aviv - City Center","lat":32.0798,"lon":34.7772,"source":"rocketalert.lookup","updatedAt":"2026-03-08T17:34:19.312Z"},{"key":"tel aviv - east","label":"Tel Aviv - East","lat":32.0578,"lon":34.7987,"source":"rocketalert.lookup","updatedAt":"2026-03-08T17:34:19.312Z"},{"key":"tel aviv - south and jaffa","label":"Tel Aviv - South and Jaffa","lat":32.0462,"lon":34.7654,"source":"rocketalert.lookup","updatedAt":"2026-03-08T17:34:19.312Z"},{"key":"tel hai","label":"Tel Hai","lat":33.2334,"lon":35.5827,"source":"rocketalert.lookup","updatedAt":"2026-03-08T17:34:19.312Z"},{"key":"tel regev cemetary","label":"Tel Regev Cemetary","lat":32.7678,"lon":35.1219,"source":"rocketalert.lookup","updatedAt":"2026-03-08T17:34:19.312Z"},{"key":"tiberias","label":"Tiberias","lat":32.7959,"lon":35.531,"source":"rocketalert.lookup","updatedAt":"2026-03-08T17:34:19.312Z"},{"key":"timorimg industrial zone","label":"Timorimg Industrial Zone","lat":31.7242,"lon":34.7615,"source":"rocketalert.lookup","updatedAt":"2026-03-08T17:34:19.312Z"},{"key":"timrat","label":"Timrat","lat":32.7038,"lon":35.2255,"source":"rocketalert.lookup","updatedAt":"2026-03-08T17:34:19.312Z"},{"key":"tira","label":"Tira","lat":32.234394,"lon":34.951488,"source":"rocketalert.lookup","updatedAt":"2026-03-08T16:29:00.120Z"},{"key":"tirat carmel","label":"Tirat Carmel","lat":32.7621,"lon":34.973,"source":"rocketalert.lookup","updatedAt":"2026-03-08T17:34:19.312Z"},{"key":"tirat yehuda","label":"Tirat Yehuda","lat":32.0148,"lon":34.9359,"source":"rocketalert.lookup","updatedAt":"2026-03-08T17:34:19.312Z"},{"key":"tirat zvi","label":"Tirat Zvi","lat":32.4225,"lon":35.5283,"source":"rocketalert.lookup","updatedAt":"2026-03-08T17:34:19.312Z"},{"key":"tomer","label":"Tomer","lat":32.0186,"lon":35.4398,"source":"rocketalert.lookup","updatedAt":"2026-03-08T16:34:06.108Z"},{"key":"tzafria","label":"Tzafria","lat":32.0043,"lon":34.8547,"source":"rocketalert.lookup","updatedAt":"2026-03-08T17:34:19.312Z"},{"key":"tzippori","label":"Tzippori","lat":32.7467,"lon":35.2764,"source":"rocketalert.lookup","updatedAt":"2026-03-08T17:34:19.312Z"},{"key":"tzofit","label":"Tzofit","lat":32.1949,"lon":34.9201,"source":"rocketalert.lookup","updatedAt":"2026-03-08T16:29:00.120Z"},{"key":"tzur itzhak","label":"Tzur Itzhak","lat":32.2415,"lon":34.998,"source":"rocketalert.lookup","updatedAt":"2026-03-08T16:29:00.120Z"},{"key":"tzur natan","label":"Tzur Natan","lat":32.2397,"lon":35.014,"source":"rocketalert.lookup","updatedAt":"2026-03-08T16:29:00.120Z"},{"key":"usha","label":"Usha","lat":32.7965,"lon":35.1146,"source":"rocketalert.lookup","updatedAt":"2026-03-08T17:34:19.312Z"},{"key":"ya'ara","label":"Ya'ara","lat":33.068,"lon":35.1861,"source":"rocketalert.lookup","updatedAt":"2026-03-08T17:34:19.312Z"},{"key":"yad binyamin","label":"Yad Binyamin","lat":31.7967,"lon":34.8204,"source":"rocketalert.lookup","updatedAt":"2026-03-08T17:34:19.312Z"},{"key":"yad rambam","label":"Yad Rambam","lat":31.899841,"lon":34.900086,"source":"rocketalert.lookup","updatedAt":"2026-03-08T17:34:19.312Z"},{"key":"yafhiv","label":"Yafhiv","lat":32.1515,"lon":34.968,"source":"rocketalert.lookup","updatedAt":"2026-03-08T17:34:19.312Z"},{"key":"yafit","label":"Yafit","lat":32.0627,"lon":35.4743,"source":"rocketalert.lookup","updatedAt":"2026-03-08T16:34:06.108Z"},{"key":"yagel","label":"Yagel","lat":31.9878,"lon":34.8803,"source":"rocketalert.lookup","updatedAt":"2026-03-08T17:34:19.312Z"},{"key":"yagur","label":"Yagur","lat":32.7415,"lon":35.0768,"source":"rocketalert.lookup","updatedAt":"2026-03-08T17:34:19.312Z"},{"key":"yakir","label":"Yakir","lat":32.1498,"lon":35.1146,"source":"rocketalert.lookup","updatedAt":"2026-03-08T17:34:19.312Z"},{"key":"yarkona","label":"Yarkona","lat":32.1445,"lon":34.8979,"source":"rocketalert.lookup","updatedAt":"2026-03-08T17:34:19.312Z"},{"key":"yashresh","label":"Yashresh","lat":31.9157,"lon":34.8473,"source":"rocketalert.lookup","updatedAt":"2026-03-08T17:34:19.312Z"},{"key":"yasur","label":"Yasur","lat":32.9011,"lon":35.1666,"source":"rocketalert.lookup","updatedAt":"2026-03-08T17:34:19.312Z"},{"key":"yatzitz","label":"Yatzitz","lat":31.8632,"lon":34.8619,"source":"rocketalert.lookup","updatedAt":"2026-03-08T17:34:19.312Z"},{"key":"yavne","label":"Yavne","lat":31.878,"lon":34.7394,"source":"rocketalert.lookup","updatedAt":"2026-03-08T17:34:19.312Z"},{"key":"yavne'el","label":"Yavne'el","lat":32.7088,"lon":35.5038,"source":"rocketalert.lookup","updatedAt":"2026-03-08T17:34:19.312Z"},{"key":"yehud - monoson","label":"Yehud - Monoson","lat":32.0325,"lon":34.8872,"source":"rocketalert.lookup","updatedAt":"2026-03-08T17:34:19.312Z"},{"key":"yesodot","label":"Yesodot","lat":31.8158,"lon":34.8656,"source":"rocketalert.lookup","updatedAt":"2026-03-08T17:34:19.312Z"},{"key":"yesud hama'ala","label":"Yesud Hama'ala","lat":33.0536,"lon":35.589,"source":"rocketalert.lookup","updatedAt":"2026-03-08T17:34:19.312Z"},{"key":"yinon","label":"Yinon","lat":31.7418,"lon":34.7809,"source":"rocketalert.lookup","updatedAt":"2026-03-08T17:34:19.312Z"},{"key":"yir'on","label":"Yir'on","lat":33.0772,"lon":35.4543,"source":"rocketalert.lookup","updatedAt":"2026-03-08T17:34:19.312Z"},{"key":"yitav","label":"Yitav","lat":31.947215,"lon":35.422375,"source":"rocketalert.lookup","updatedAt":"2026-03-08T16:29:00.120Z"},{"key":"yodfat","label":"Yodfat","lat":32.8366,"lon":35.2715,"source":"rocketalert.lookup","updatedAt":"2026-03-08T17:34:19.312Z"},{"key":"zarit","label":"Zarit","lat":33.099,"lon":35.2885,"source":"rocketalert.lookup","updatedAt":"2026-03-08T17:34:19.312Z"},{"key":"zarzir","label":"Zarzir","lat":32.7233,"lon":35.2204,"source":"rocketalert.lookup","updatedAt":"2026-03-08T17:34:19.312Z"},{"key":"zeitan","label":"Zeitan","lat":31.9752,"lon":34.8917,"source":"rocketalert.lookup","updatedAt":"2026-03-08T17:34:19.312Z"},{"key":"zikim","label":"Zikim","lat":31.6072,"lon":34.521,"source":"rocketalert.lookup","updatedAt":"2026-03-08T17:34:19.312Z"},{"key":"zikim beach","label":"Zikim Beach","lat":31.6164,"lon":34.508,"source":"rocketalert.lookup","updatedAt":"2026-03-08T17:34:19.312Z"},{"key":"zrifin industrial zone","label":"Zrifin Industrial Zone","lat":31.9624,"lon":34.8533,"source":"rocketalert.lookup","updatedAt":"2026-03-08T17:34:19.312Z"},{"key":"zufim","label":"Zufim","lat":32.1979,"lon":35.0107,"source":"rocketalert.lookup","updatedAt":"2026-03-08T17:34:19.312Z"},{"key":"אביבים","label":"אביבים","lat":33.0894,"lon":35.4703,"source":"rocketalert.lookup","updatedAt":"2026-03-08T17:34:19.312Z"},{"key":"אבן מנחם","label":"אבן מנחם","lat":33.0751,"lon":35.2952,"source":"rocketalert.lookup","updatedAt":"2026-03-08T17:34:19.312Z"},{"key":"אדמית","label":"אדמית","lat":33.0788,"lon":35.2095,"source":"rocketalert.lookup","updatedAt":"2026-03-08T17:34:19.312Z"},{"key":"אודם","label":"אודם","lat":33.1934,"lon":35.7496,"source":"rocketalert.lookup","updatedAt":"2026-03-08T17:34:19.312Z"},{"key":"אור יהודה","label":"אור יהודה","lat":32.0297,"lon":34.8562,"source":"rocketalert.lookup","updatedAt":"2026-03-08T17:34:19.312Z"},{"key":"אורות","label":"אורות","lat":31.74176,"lon":34.734758,"source":"rocketalert.lookup","updatedAt":"2026-03-08T17:34:19.312Z"},{"key":"אורטל","label":"אורטל","lat":33.0862,"lon":35.7587,"source":"rocketalert.lookup","updatedAt":"2026-03-08T17:34:19.312Z"},{"key":"אורנים","label":"אורנים","lat":32.7112,"lon":35.1096,"source":"rocketalert.lookup","updatedAt":"2026-03-08T17:34:19.312Z"},{"key":"אורנית","label":"אורנית","lat":32.1319,"lon":34.9908,"source":"rocketalert.lookup","updatedAt":"2026-03-08T17:34:19.312Z"},{"key":"אושה","label":"אושה","lat":32.7965,"lon":35.1146,"source":"rocketalert.lookup","updatedAt":"2026-03-08T17:34:19.312Z"},{"key":"אזור","label":"אזור","lat":32.0296,"lon":34.7996,"source":"rocketalert.lookup","updatedAt":"2026-03-08T17:34:19.312Z"},{"key":"אזור תעשייה אפק ולב הארץ","label":"אזור תעשייה אפק ולב הארץ","lat":32.10799,"lon":34.953088,"source":"rocketalert.lookup","updatedAt":"2026-03-08T17:34:19.312Z"},{"key":"אזור תעשייה אריאל","label":"אזור תעשייה אריאל","lat":32.094,"lon":35.1234,"source":"rocketalert.lookup","updatedAt":"2026-03-08T17:34:19.312Z"},{"key":"אזור תעשייה באר טוביה","label":"אזור תעשייה באר טוביה","lat":31.7249,"lon":34.751,"source":"rocketalert.lookup","updatedAt":"2026-03-08T17:34:19.312Z"},{"key":"אזור תעשייה בר-לב","label":"אזור תעשייה בר-לב","lat":32.9063,"lon":35.1948,"source":"rocketalert.lookup","updatedAt":"2026-03-08T17:34:19.312Z"},{"key":"אזור תעשייה בראון","label":"אזור תעשייה בראון","lat":32.2488,"lon":35.1681,"source":"rocketalert.lookup","updatedAt":"2026-03-08T17:34:19.312Z"},{"key":"אזור תעשייה ברקן","label":"אזור תעשייה ברקן","lat":32.1051,"lon":35.1199,"source":"rocketalert.lookup","updatedAt":"2026-03-08T17:34:19.312Z"},{"key":"אזור תעשייה גדרה","label":"אזור תעשייה גדרה","lat":31.7995,"lon":34.7677,"source":"rocketalert.lookup","updatedAt":"2026-03-08T17:34:19.312Z"},{"key":"אזור תעשייה הדרומי אשקלון","label":"אזור תעשייה הדרומי אשקלון","lat":31.6361,"lon":34.5545,"source":"rocketalert.lookup","updatedAt":"2026-03-08T17:34:19.312Z"},{"key":"אזור תעשייה כנות","label":"אזור תעשייה כנות","lat":31.8013,"lon":34.7591,"source":"rocketalert.lookup","updatedAt":"2026-03-08T17:34:19.312Z"},{"key":"אזור תעשייה ניר עציון","label":"אזור תעשייה ניר עציון","lat":32.7019,"lon":34.973,"source":"rocketalert.lookup","updatedAt":"2026-03-08T17:34:19.312Z"},{"key":"אזור תעשייה נשר - רמלה","label":"אזור תעשייה נשר - רמלה","lat":31.9179,"lon":34.892,"source":"rocketalert.lookup","updatedAt":"2026-03-08T17:34:19.312Z"},{"key":"אזור תעשייה עד הלום","label":"אזור תעשייה עד הלום","lat":31.7581,"lon":34.6559,"source":"rocketalert.lookup","updatedAt":"2026-03-08T17:34:19.312Z"},{"key":"אזור תעשייה צפוני אשקלון","label":"אזור תעשייה צפוני אשקלון","lat":31.6647,"lon":34.5981,"source":"rocketalert.lookup","updatedAt":"2026-03-08T17:34:19.312Z"},{"key":"אזור תעשייה קדמת גליל","label":"אזור תעשייה קדמת גליל","lat":32.7854,"lon":35.4631,"source":"rocketalert.lookup","updatedAt":"2026-03-08T17:34:19.312Z"},{"key":"אזור תעשייה קריית ביאליק","label":"אזור תעשייה קריית ביאליק","lat":32.8671,"lon":35.0988,"source":"rocketalert.lookup","updatedAt":"2026-03-08T17:34:19.312Z"},{"key":"אזור תעשייה רבדים","label":"אזור תעשייה רבדים","lat":31.7855,"lon":34.822,"source":"rocketalert.lookup","updatedAt":"2026-03-08T17:34:19.312Z"},{"key":"אזור תעשייה שער נעמן","label":"אזור תעשייה שער נעמן","lat":32.8805,"lon":35.0976,"source":"rocketalert.lookup","updatedAt":"2026-03-08T17:34:19.312Z"},{"key":"אזור תעשייה תימורים","label":"אזור תעשייה תימורים","lat":31.7242,"lon":34.7615,"source":"rocketalert.lookup","updatedAt":"2026-03-08T17:34:19.312Z"},{"key":"אחווה","label":"אחווה","lat":31.7429,"lon":34.7678,"source":"rocketalert.lookup","updatedAt":"2026-03-08T17:34:19.312Z"},{"key":"אחיה","label":"אחיה","lat":32.0605,"lon":35.3273,"source":"rocketalert.lookup","updatedAt":"2026-03-08T16:29:00.120Z"},{"key":"אחיהוד","label":"אחיהוד","lat":32.9074,"lon":35.1717,"source":"rocketalert.lookup","updatedAt":"2026-03-08T17:34:19.312Z"},{"key":"אחיסמך","label":"אחיסמך","lat":31.9319,"lon":34.9086,"source":"rocketalert.lookup","updatedAt":"2026-03-08T17:34:19.312Z"},{"key":"אחיעזר","label":"אחיעזר","lat":31.9817,"lon":34.8718,"source":"rocketalert.lookup","updatedAt":"2026-03-08T17:34:19.312Z"},{"key":"איבטין","label":"איבטין","lat":32.76,"lon":35.1146,"source":"rocketalert.lookup","updatedAt":"2026-03-08T17:34:19.312Z"},{"key":"איזור תעשייה מילואות צפון","label":"איזור תעשייה מילואות צפון","lat":33.0585,"lon":35.1042,"source":"rocketalert.lookup","updatedAt":"2026-03-08T17:34:19.312Z"},{"key":"אייל","label":"אייל","lat":32.211823,"lon":34.979862,"source":"rocketalert.lookup","updatedAt":"2026-03-08T16:29:00.120Z"},{"key":"איילת השחר","label":"איילת השחר","lat":33.0211,"lon":35.5767,"source":"rocketalert.lookup","updatedAt":"2026-03-08T17:34:19.312Z"},{"key":"איירפורט סיטי","label":"איירפורט סיטי","lat":31.9887,"lon":34.9123,"source":"rocketalert.lookup","updatedAt":"2026-03-08T17:34:19.312Z"},{"key":"אילון","label":"אילון","lat":33.0625,"lon":35.2192,"source":"rocketalert.lookup","updatedAt":"2026-03-08T17:34:19.312Z"},{"key":"אירוס","label":"אירוס","lat":31.9286,"lon":34.7766,"source":"rocketalert.lookup","updatedAt":"2026-03-08T17:34:19.312Z"},{"key":"איתמר","label":"איתמר","lat":32.1739,"lon":35.308,"source":"rocketalert.lookup","updatedAt":"2026-03-08T17:34:19.312Z"},{"key":"אל רום","label":"אל רום","lat":33.1805,"lon":35.7701,"source":"rocketalert.lookup","updatedAt":"2026-03-08T17:34:19.312Z"},{"key":"אלון הגליל","label":"אלון הגליל","lat":32.7569,"lon":35.2203,"source":"rocketalert.lookup","updatedAt":"2026-03-08T17:34:19.312Z"},{"key":"אלון מורה","label":"אלון מורה","lat":32.2344,"lon":35.3312,"source":"rocketalert.lookup","updatedAt":"2026-03-08T17:34:19.312Z"},{"key":"אלוני אבא","label":"אלוני אבא","lat":32.7309,"lon":35.172,"source":"rocketalert.lookup","updatedAt":"2026-03-08T17:34:19.312Z"},{"key":"אלוני הבשן","label":"אלוני הבשן","lat":33.0441,"lon":35.8385,"source":"rocketalert.lookup","updatedAt":"2026-03-08T17:34:19.312Z"},{"key":"אלונים","label":"אלונים","lat":32.7215,"lon":35.1434,"source":"rocketalert.lookup","updatedAt":"2026-03-08T17:34:19.312Z"},{"key":"אלישמע","label":"אלישמע","lat":32.1548,"lon":34.9305,"source":"rocketalert.lookup","updatedAt":"2026-03-08T17:34:19.312Z"},{"key":"אלעד","label":"אלעד","lat":32.0495,"lon":34.9507,"source":"rocketalert.lookup","updatedAt":"2026-03-08T17:34:19.312Z"},{"key":"אלפי מנשה","label":"אלפי מנשה","lat":32.1706,"lon":35.0149,"source":"rocketalert.lookup","updatedAt":"2026-03-08T17:34:19.312Z"},{"key":"אלקנה","label":"אלקנה","lat":32.1106,"lon":35.0321,"source":"rocketalert.lookup","updatedAt":"2026-03-08T17:34:19.312Z"},{"key":"אמונים","label":"אמונים","lat":31.7439,"lon":34.6745,"source":"rocketalert.lookup","updatedAt":"2026-03-08T17:34:19.312Z"},{"key":"אעבלין","label":"אעבלין","lat":32.8218,"lon":35.1901,"source":"rocketalert.lookup","updatedAt":"2026-03-08T17:34:19.312Z"},{"key":"אפק","label":"אפק","lat":32.8383,"lon":35.1278,"source":"rocketalert.lookup","updatedAt":"2026-03-08T17:34:19.312Z"},{"key":"אריאל","label":"אריאל","lat":32.1046,"lon":35.1745,"source":"rocketalert.lookup","updatedAt":"2026-03-08T17:34:19.312Z"},{"key":"אשדוד - א,ב,ד,ה","label":"אשדוד - א,ב,ד,ה","lat":31.8047,"lon":34.6469,"source":"rocketalert.lookup","updatedAt":"2026-03-08T17:34:19.312Z"},{"key":"אשדוד - איזור תעשייה צפוני","label":"אשדוד - איזור תעשייה צפוני","lat":31.8298,"lon":34.6602,"source":"rocketalert.lookup","updatedAt":"2026-03-08T17:34:19.312Z"},{"key":"אשדוד - ג,ו,ז","label":"אשדוד - ג,ו,ז","lat":31.7966,"lon":34.6579,"source":"rocketalert.lookup","updatedAt":"2026-03-08T17:34:19.312Z"},{"key":"אשדוד - ח,ט,י,יג,יד,טז","label":"אשדוד - ח,ט,י,יג,יד,טז","lat":31.7778,"lon":34.6462,"source":"rocketalert.lookup","updatedAt":"2026-03-08T17:34:19.312Z"},{"key":"אשקלון - דרום","label":"אשקלון - דרום","lat":31.661,"lon":34.5688,"source":"rocketalert.lookup","updatedAt":"2026-03-08T17:34:19.312Z"},{"key":"אשקלון - צפון","label":"אשקלון - צפון","lat":31.686,"lon":34.5839,"source":"rocketalert.lookup","updatedAt":"2026-03-08T17:34:19.312Z"},{"key":"באר גנים","label":"באר גנים","lat":31.7004,"lon":34.6109,"source":"rocketalert.lookup","updatedAt":"2026-03-08T17:34:19.312Z"},{"key":"באר טוביה","label":"באר טוביה","lat":31.7371,"lon":34.7256,"source":"rocketalert.lookup","updatedAt":"2026-03-08T17:34:19.312Z"},{"key":"באר יעקב","label":"באר יעקב","lat":31.9435,"lon":34.839,"source":"rocketalert.lookup","updatedAt":"2026-03-08T17:34:19.312Z"},{"key":"בארות יצחק","label":"בארות יצחק","lat":32.042,"lon":34.9102,"source":"rocketalert.lookup","updatedAt":"2026-03-08T17:34:19.312Z"},{"key":"בוקעתא","label":"בוקעתא","lat":33.2027,"lon":35.7768,"source":"rocketalert.lookup","updatedAt":"2026-03-08T17:34:19.312Z"},{"key":"ביצרון","label":"ביצרון","lat":31.795,"lon":34.7293,"source":"rocketalert.lookup","updatedAt":"2026-03-08T17:34:19.312Z"},{"key":"ביר אלמכסור","label":"ביר אלמכסור","lat":32.7773,"lon":35.2206,"source":"rocketalert.lookup","updatedAt":"2026-03-08T17:34:19.312Z"},{"key":"בית אורן","label":"בית אורן","lat":32.7316,"lon":35.0063,"source":"rocketalert.lookup","updatedAt":"2026-03-08T17:34:19.312Z"},{"key":"בית אל","label":"בית אל","lat":31.9416,"lon":35.2227,"source":"rocketalert.lookup","updatedAt":"2026-03-08T16:29:00.120Z"},{"key":"בית אלעזרי","label":"בית אלעזרי","lat":31.8447,"lon":34.8066,"source":"rocketalert.lookup","updatedAt":"2026-03-08T17:34:19.312Z"},{"key":"בית אריה","label":"בית אריה","lat":32.0401,"lon":35.0495,"source":"rocketalert.lookup","updatedAt":"2026-03-08T17:34:19.312Z"},{"key":"בית ברל","label":"בית ברל","lat":32.1997,"lon":34.9261,"source":"rocketalert.lookup","updatedAt":"2026-03-08T16:29:00.120Z"},{"key":"בית גמליאל","label":"בית גמליאל","lat":31.8561,"lon":34.7609,"source":"rocketalert.lookup","updatedAt":"2026-03-08T17:34:19.312Z"},{"key":"בית דגן","label":"בית דגן","lat":32.0018,"lon":34.8297,"source":"rocketalert.lookup","updatedAt":"2026-03-08T17:34:19.312Z"},{"key":"בית הלל","label":"בית הלל","lat":33.2088,"lon":35.6065,"source":"rocketalert.lookup","updatedAt":"2026-03-08T17:34:19.312Z"},{"key":"בית העלמין החדש עכו","label":"בית העלמין החדש עכו","lat":32.9146,"lon":35.1358,"source":"rocketalert.lookup","updatedAt":"2026-03-08T17:34:19.312Z"},{"key":"בית חלקיה","label":"בית חלקיה","lat":31.793,"lon":34.8097,"source":"rocketalert.lookup","updatedAt":"2026-03-08T17:34:19.312Z"},{"key":"בית חנן","label":"בית חנן","lat":31.9352,"lon":34.7756,"source":"rocketalert.lookup","updatedAt":"2026-03-08T17:34:19.312Z"},{"key":"בית חשמונאי","label":"בית חשמונאי","lat":31.8903,"lon":34.9176,"source":"rocketalert.lookup","updatedAt":"2026-03-08T17:34:19.312Z"},{"key":"בית לחם הגלילית","label":"בית לחם הגלילית","lat":32.7346,"lon":35.1913,"source":"rocketalert.lookup","updatedAt":"2026-03-08T17:34:19.312Z"},{"key":"בית נחמיה","label":"בית נחמיה","lat":31.9771,"lon":34.9538,"source":"rocketalert.lookup","updatedAt":"2026-03-08T17:34:19.312Z"},{"key":"בית סוהר קישון","label":"בית סוהר קישון","lat":32.7262,"lon":35.0915,"source":"rocketalert.lookup","updatedAt":"2026-03-08T17:34:19.312Z"},{"key":"בית עובד","label":"בית עובד","lat":31.9213,"lon":34.7749,"source":"rocketalert.lookup","updatedAt":"2026-03-08T17:34:19.312Z"},{"key":"בית עוזיאל","label":"בית עוזיאל","lat":31.8701,"lon":34.9049,"source":"rocketalert.lookup","updatedAt":"2026-03-08T17:34:19.312Z"},{"key":"בית עזרא","label":"בית עזרא","lat":31.7364,"lon":34.6575,"source":"rocketalert.lookup","updatedAt":"2026-03-08T17:34:19.312Z"},{"key":"בית עלמין מורשה","label":"בית עלמין מורשה","lat":32.1206,"lon":34.8549,"source":"rocketalert.lookup","updatedAt":"2026-03-08T17:34:19.312Z"},{"key":"בית עלמין תל רגב","label":"בית עלמין תל רגב","lat":32.7678,"lon":35.1219,"source":"rocketalert.lookup","updatedAt":"2026-03-08T17:34:19.312Z"},{"key":"בית עריף","label":"בית עריף","lat":31.9954,"lon":34.9351,"source":"rocketalert.lookup","updatedAt":"2026-03-08T17:34:19.312Z"},{"key":"בית צבי","label":"בית צבי","lat":32.7189,"lon":34.9697,"source":"rocketalert.lookup","updatedAt":"2026-03-08T17:34:19.312Z"},{"key":"בית שערים","label":"בית שערים","lat":32.6965,"lon":35.1788,"source":"rocketalert.lookup","updatedAt":"2026-03-08T17:34:19.312Z"},{"key":"בית שקמה","label":"בית שקמה","lat":31.6377,"lon":34.6101,"source":"rocketalert.lookup","updatedAt":"2026-03-08T17:34:19.312Z"},{"key":"בן זכאי","label":"בן זכאי","lat":31.8572,"lon":34.7274,"source":"rocketalert.lookup","updatedAt":"2026-03-08T17:34:19.312Z"},{"key":"בן שמן","label":"בן שמן","lat":31.9513,"lon":34.9198,"source":"rocketalert.lookup","updatedAt":"2026-03-08T17:34:19.312Z"},{"key":"בני ברק","label":"בני ברק","lat":32.0849,"lon":34.8352,"source":"rocketalert.lookup","updatedAt":"2026-03-08T17:34:19.312Z"},{"key":"בני דרום","label":"בני דרום","lat":31.8209,"lon":34.6916,"source":"rocketalert.lookup","updatedAt":"2026-03-08T17:34:19.312Z"},{"key":"בני עטרות","label":"בני עטרות","lat":32.0215,"lon":34.9101,"source":"rocketalert.lookup","updatedAt":"2026-03-08T17:34:19.312Z"},{"key":"בני עי''ש","label":"בני עי''ש","lat":31.7902,"lon":34.7593,"source":"rocketalert.lookup","updatedAt":"2026-03-08T17:34:19.312Z"},{"key":"בני ראם","label":"בני ראם","lat":31.77,"lon":34.7905,"source":"rocketalert.lookup","updatedAt":"2026-03-08T17:34:19.312Z"},{"key":"בניה","label":"בניה","lat":31.8434,"lon":34.7518,"source":"rocketalert.lookup","updatedAt":"2026-03-08T17:34:19.312Z"},{"key":"בסמת טבעון","label":"בסמת טבעון","lat":32.7363,"lon":35.1532,"source":"rocketalert.lookup","updatedAt":"2026-03-08T17:34:19.312Z"},{"key":"בצת","label":"בצת","lat":33.07,"lon":35.1326,"source":"rocketalert.lookup","updatedAt":"2026-03-08T17:34:19.312Z"},{"key":"בקוע","label":"בקוע","lat":31.8279,"lon":34.9247,"source":"rocketalert.lookup","updatedAt":"2026-03-08T17:34:19.312Z"},{"key":"בקעות","label":"בקעות","lat":32.2421,"lon":35.4526,"source":"rocketalert.lookup","updatedAt":"2026-03-08T17:34:19.312Z"},{"key":"ברוכין","label":"ברוכין","lat":32.0822,"lon":35.0941,"source":"rocketalert.lookup","updatedAt":"2026-03-08T17:34:19.312Z"},{"key":"ברכיה","label":"ברכיה","lat":31.668,"lon":34.6243,"source":"rocketalert.lookup","updatedAt":"2026-03-08T17:34:19.312Z"},{"key":"ברקן","label":"ברקן","lat":32.1095,"lon":35.106,"source":"rocketalert.lookup","updatedAt":"2026-03-08T17:34:19.312Z"},{"key":"ברקת","label":"ברקת","lat":32.0183,"lon":34.9432,"source":"rocketalert.lookup","updatedAt":"2026-03-08T17:34:19.312Z"},{"key":"בת הדר","label":"בת הדר","lat":31.6481,"lon":34.5971,"source":"rocketalert.lookup","updatedAt":"2026-03-08T17:34:19.312Z"},{"key":"בת ים","label":"בת ים","lat":32.0146,"lon":34.7493,"source":"rocketalert.lookup","updatedAt":"2026-03-08T17:34:19.312Z"},{"key":"ג'דידה מכר","label":"ג'דידה מכר","lat":32.9287,"lon":35.1506,"source":"rocketalert.lookup","updatedAt":"2026-03-08T17:34:19.312Z"},{"key":"ג'לג'וליה","label":"ג'לג'וליה","lat":32.1525,"lon":34.954,"source":"rocketalert.lookup","updatedAt":"2026-03-08T17:34:19.312Z"},{"key":"גאליה","label":"גאליה","lat":31.8856,"lon":34.7654,"source":"rocketalert.lookup","updatedAt":"2026-03-08T17:34:19.312Z"},{"key":"גבעת אלה","label":"גבעת אלה","lat":32.722,"lon":35.2448,"source":"rocketalert.lookup","updatedAt":"2026-03-08T17:34:19.312Z"},{"key":"גבעת אסף","label":"גבעת אסף","lat":31.9112,"lon":35.2481,"source":"rocketalert.lookup","updatedAt":"2026-03-08T16:29:00.120Z"},{"key":"גבעת ברנר","label":"גבעת ברנר","lat":31.8666,"lon":34.8023,"source":"rocketalert.lookup","updatedAt":"2026-03-08T17:34:19.312Z"},{"key":"גבעת השלושה","label":"גבעת השלושה","lat":32.0963,"lon":34.9206,"source":"rocketalert.lookup","updatedAt":"2026-03-08T17:34:19.312Z"},{"key":"גבעת וולפסון","label":"גבעת וולפסון","lat":32.7202,"lon":35.0161,"source":"rocketalert.lookup","updatedAt":"2026-03-08T17:34:19.312Z"},{"key":"גבעת וושינגטון","label":"גבעת וושינגטון","lat":31.8175,"lon":34.7289,"source":"rocketalert.lookup","updatedAt":"2026-03-08T17:34:19.312Z"},{"key":"גבעת חן","label":"גבעת חן","lat":32.1676,"lon":34.8755,"source":"rocketalert.lookup","updatedAt":"2026-03-08T16:29:00.120Z"},{"key":"גבעת כ''ח","label":"גבעת כ''ח","lat":32.032091,"lon":34.938796,"source":"rocketalert.lookup","updatedAt":"2026-03-08T17:34:19.312Z"},{"key":"גבעת שמואל","label":"גבעת שמואל","lat":32.0773,"lon":34.8492,"source":"rocketalert.lookup","updatedAt":"2026-03-08T17:34:19.312Z"},{"key":"גבעתי","label":"גבעתי","lat":31.7331,"lon":34.6795,"source":"rocketalert.lookup","updatedAt":"2026-03-08T17:34:19.312Z"},{"key":"גבעתיים","label":"גבעתיים","lat":32.0722,"lon":34.8089,"source":"rocketalert.lookup","updatedAt":"2026-03-08T17:34:19.312Z"},{"key":"גדות","label":"גדות","lat":33.0182,"lon":35.6195,"source":"rocketalert.lookup","updatedAt":"2026-03-08T17:34:19.312Z"},{"key":"גדרה","label":"גדרה","lat":31.8123,"lon":34.777,"source":"rocketalert.lookup","updatedAt":"2026-03-08T17:34:19.312Z"},{"key":"גונן","label":"גונן","lat":33.124,"lon":35.6462,"source":"rocketalert.lookup","updatedAt":"2026-03-08T17:34:19.312Z"},{"key":"גורן","label":"גורן","lat":33.0556,"lon":35.2336,"source":"rocketalert.lookup","updatedAt":"2026-03-08T17:34:19.312Z"},{"key":"גורנות הגליל","label":"גורנות הגליל","lat":33.0593,"lon":35.2497,"source":"rocketalert.lookup","updatedAt":"2026-03-08T17:34:19.312Z"},{"key":"גזר","label":"גזר","lat":31.8761,"lon":34.9203,"source":"rocketalert.lookup","updatedAt":"2026-03-08T17:34:19.312Z"},{"key":"גיאה","label":"גיאה","lat":31.6285,"lon":34.6027,"source":"rocketalert.lookup","updatedAt":"2026-03-08T17:34:19.312Z"},{"key":"גיבתון","label":"גיבתון","lat":31.8883,"lon":34.7991,"source":"rocketalert.lookup","updatedAt":"2026-03-08T17:34:19.312Z"},{"key":"גינתון","label":"גינתון","lat":31.9628,"lon":34.9131,"source":"rocketalert.lookup","updatedAt":"2026-03-08T17:34:19.312Z"},{"key":"גיתית","label":"גיתית","lat":32.1003,"lon":35.3954,"source":"rocketalert.lookup","updatedAt":"2026-03-08T16:29:00.120Z"},{"key":"גלגל","label":"גלגל","lat":32.0004,"lon":35.4448,"source":"rocketalert.lookup","updatedAt":"2026-03-08T16:34:06.108Z"},{"key":"גמזו","label":"גמזו","lat":31.9272,"lon":34.9411,"source":"rocketalert.lookup","updatedAt":"2026-03-08T17:34:19.312Z"},{"key":"גן הדרום","label":"גן הדרום","lat":31.8041,"lon":34.6999,"source":"rocketalert.lookup","updatedAt":"2026-03-08T17:34:19.312Z"},{"key":"גן חיים","label":"גן חיים","lat":32.1958,"lon":34.907,"source":"rocketalert.lookup","updatedAt":"2026-03-08T16:29:00.120Z"},{"key":"גן יבנה","label":"גן יבנה","lat":31.7831,"lon":34.7031,"source":"rocketalert.lookup","updatedAt":"2026-03-08T17:34:19.312Z"},{"key":"גן שורק","label":"גן שורק","lat":31.944,"lon":34.7583,"source":"rocketalert.lookup","updatedAt":"2026-03-08T17:34:19.312Z"},{"key":"גן שלמה","label":"גן שלמה","lat":31.8788,"lon":34.7989,"source":"rocketalert.lookup","updatedAt":"2026-03-08T17:34:19.312Z"},{"key":"גנות","label":"גנות","lat":32.0182,"lon":34.8259,"source":"rocketalert.lookup","updatedAt":"2026-03-08T17:34:19.312Z"},{"key":"גני הדר","label":"גני הדר","lat":31.8782,"lon":34.8576,"source":"rocketalert.lookup","updatedAt":"2026-03-08T17:34:19.312Z"},{"key":"גני טל","label":"גני טל","lat":31.7886,"lon":34.7914,"source":"rocketalert.lookup","updatedAt":"2026-03-08T17:34:19.312Z"},{"key":"גני יוחנן","label":"גני יוחנן","lat":31.8599,"lon":34.8408,"source":"rocketalert.lookup","updatedAt":"2026-03-08T17:34:19.312Z"},{"key":"גני עם","label":"גני עם","lat":32.1498,"lon":34.9034,"source":"rocketalert.lookup","updatedAt":"2026-03-08T17:34:19.312Z"},{"key":"גני תקווה","label":"גני תקווה","lat":32.0605,"lon":34.8731,"source":"rocketalert.lookup","updatedAt":"2026-03-08T17:34:19.312Z"},{"key":"גת רימון","label":"גת רימון","lat":32.0681,"lon":34.8814,"source":"rocketalert.lookup","updatedAt":"2026-03-08T17:34:19.312Z"},{"key":"דולב","label":"דולב","lat":31.9262,"lon":35.1336,"source":"rocketalert.lookup","updatedAt":"2026-03-08T16:29:00.120Z"},{"key":"דישון","label":"דישון","lat":33.0823,"lon":35.5176,"source":"rocketalert.lookup","updatedAt":"2026-03-08T17:34:19.312Z"},{"key":"דלית אל כרמל","label":"דלית אל כרמל","lat":32.6938,"lon":35.0554,"source":"rocketalert.lookup","updatedAt":"2026-03-08T17:34:19.312Z"},{"key":"דמיידה","label":"דמיידה","lat":32.815,"lon":35.2266,"source":"rocketalert.lookup","updatedAt":"2026-03-08T17:34:19.312Z"},{"key":"דפנה","label":"דפנה","lat":33.2308,"lon":35.6383,"source":"rocketalert.lookup","updatedAt":"2026-03-08T17:34:19.312Z"},{"key":"הגושרים","label":"הגושרים","lat":33.2215,"lon":35.623,"source":"rocketalert.lookup","updatedAt":"2026-03-08T17:34:19.312Z"},{"key":"הוד השרון","label":"הוד השרון","lat":32.15,"lon":34.8839,"source":"rocketalert.lookup","updatedAt":"2026-03-08T17:34:19.312Z"},{"key":"הודיה","label":"הודיה","lat":31.6764,"lon":34.6393,"source":"rocketalert.lookup","updatedAt":"2026-03-08T17:34:19.312Z"},{"key":"הושעיה","label":"הושעיה","lat":32.7579,"lon":35.2952,"source":"rocketalert.lookup","updatedAt":"2026-03-08T17:34:19.312Z"},{"key":"הזורעים","label":"הזורעים","lat":32.7481,"lon":35.4999,"source":"rocketalert.lookup","updatedAt":"2026-03-08T17:34:19.312Z"},{"key":"החותרים","label":"החותרים","lat":32.7523,"lon":34.9575,"source":"rocketalert.lookup","updatedAt":"2026-03-08T17:34:19.312Z"},{"key":"הסוללים","label":"הסוללים","lat":32.7518,"lon":35.238,"source":"rocketalert.lookup","updatedAt":"2026-03-08T17:34:19.312Z"},{"key":"הר ברכה","label":"הר ברכה","lat":32.1933,"lon":35.2649,"source":"rocketalert.lookup","updatedAt":"2026-03-08T17:34:19.312Z"},{"key":"הרדוף","label":"הרדוף","lat":32.7637,"lon":35.1747,"source":"rocketalert.lookup","updatedAt":"2026-03-08T17:34:19.312Z"},{"key":"הרצליה - מערב","label":"הרצליה - מערב","lat":32.1738,"lon":34.8104,"source":"rocketalert.lookup","updatedAt":"2026-03-08T16:29:00.120Z"},{"key":"הרצליה - מרכז וגליל ים","label":"הרצליה - מרכז וגליל ים","lat":32.1678,"lon":34.8413,"source":"rocketalert.lookup","updatedAt":"2026-03-08T16:29:00.120Z"},{"key":"זיקים","label":"זיקים","lat":31.6072,"lon":34.521,"source":"rocketalert.lookup","updatedAt":"2026-03-08T17:34:19.312Z"},{"key":"זיתן","label":"זיתן","lat":31.9752,"lon":34.8917,"source":"rocketalert.lookup","updatedAt":"2026-03-08T17:34:19.312Z"},{"key":"זרזיר","label":"זרזיר","lat":32.7233,"lon":35.2204,"source":"rocketalert.lookup","updatedAt":"2026-03-08T17:34:19.312Z"},{"key":"זרעית","label":"זרעית","lat":33.099,"lon":35.2885,"source":"rocketalert.lookup","updatedAt":"2026-03-08T17:34:19.312Z"},{"key":"חג'אג'רה","label":"חג'אג'רה","lat":32.741,"lon":35.2049,"source":"rocketalert.lookup","updatedAt":"2026-03-08T17:34:19.312Z"},{"key":"חגור","label":"חגור","lat":32.1386,"lon":34.9476,"source":"rocketalert.lookup","updatedAt":"2026-03-08T17:34:19.312Z"},{"key":"חדיד","label":"חדיד","lat":31.9694,"lon":34.9322,"source":"rocketalert.lookup","updatedAt":"2026-03-08T17:34:19.312Z"},{"key":"חוות גלעד","label":"חוות גלעד","lat":32.2005,"lon":35.1812,"source":"rocketalert.lookup","updatedAt":"2026-03-08T17:34:19.312Z"},{"key":"חוות יאיר","label":"חוות יאיר","lat":32.1453,"lon":35.1048,"source":"rocketalert.lookup","updatedAt":"2026-03-08T17:34:19.312Z"},{"key":"חולדה","label":"חולדה","lat":31.8321,"lon":34.8815,"source":"rocketalert.lookup","updatedAt":"2026-03-08T17:34:19.312Z"},{"key":"חולון","label":"חולון","lat":32.0158,"lon":34.7874,"source":"rocketalert.lookup","updatedAt":"2026-03-08T17:34:19.312Z"},{"key":"חולתה","label":"חולתה","lat":33.0529,"lon":35.6092,"source":"rocketalert.lookup","updatedAt":"2026-03-08T17:34:19.312Z"},{"key":"חוף בצת","label":"חוף בצת","lat":33.0801,"lon":35.1066,"source":"rocketalert.lookup","updatedAt":"2026-03-08T17:34:19.312Z"},{"key":"חוף זיקים","label":"חוף זיקים","lat":31.6164,"lon":34.508,"source":"rocketalert.lookup","updatedAt":"2026-03-08T17:34:19.312Z"},{"key":"חורשים","label":"חורשים","lat":32.1379,"lon":34.971,"source":"rocketalert.lookup","updatedAt":"2026-03-08T17:34:19.312Z"},{"key":"חיפה - כרמל, הדר ועיר תחתית","label":"חיפה - כרמל, הדר ועיר תחתית","lat":32.8072,"lon":34.9878,"source":"rocketalert.lookup","updatedAt":"2026-03-08T17:34:19.312Z"},{"key":"חיפה - מערב","label":"חיפה - מערב","lat":32.8087,"lon":34.9603,"source":"rocketalert.lookup","updatedAt":"2026-03-08T17:34:19.312Z"},{"key":"חיפה - מפרץ","label":"חיפה - מפרץ","lat":32.8049,"lon":35.0521,"source":"rocketalert.lookup","updatedAt":"2026-03-08T17:34:19.312Z"},{"key":"חיפה - נווה שאנן ורמות כרמל","label":"חיפה - נווה שאנן ורמות כרמל","lat":32.7812,"lon":35.0015,"source":"rocketalert.lookup","updatedAt":"2026-03-08T17:34:19.312Z"},{"key":"חיפה - קריית חיים ושמואל","label":"חיפה - קריית חיים ושמואל","lat":32.8283,"lon":35.0656,"source":"rocketalert.lookup","updatedAt":"2026-03-08T17:34:19.312Z"},{"key":"חמד","label":"חמד","lat":32.018,"lon":34.8413,"source":"rocketalert.lookup","updatedAt":"2026-03-08T17:34:19.312Z"},{"key":"חמרה","label":"חמרה","lat":32.1997,"lon":35.4374,"source":"rocketalert.lookup","updatedAt":"2026-03-08T17:34:19.312Z"},{"key":"חניתה","label":"חניתה","lat":33.0876,"lon":35.1734,"source":"rocketalert.lookup","updatedAt":"2026-03-08T17:34:19.312Z"},{"key":"חנתון","label":"חנתון","lat":32.7831,"lon":35.2451,"source":"rocketalert.lookup","updatedAt":"2026-03-08T17:34:19.312Z"},{"key":"חפץ חיים","label":"חפץ חיים","lat":31.7893,"lon":34.7997,"source":"rocketalert.lookup","updatedAt":"2026-03-08T17:34:19.312Z"},{"key":"חצב","label":"חצב","lat":31.7801,"lon":34.7706,"source":"rocketalert.lookup","updatedAt":"2026-03-08T17:34:19.312Z"},{"key":"חצור","label":"חצור","lat":31.773,"lon":34.7199,"source":"rocketalert.lookup","updatedAt":"2026-03-08T17:34:19.312Z"},{"key":"חרשה","label":"חרשה","lat":31.9444,"lon":35.148,"source":"rocketalert.lookup","updatedAt":"2026-03-08T17:34:19.312Z"},{"key":"חשמונאים","label":"חשמונאים","lat":31.9326,"lon":35.0233,"source":"rocketalert.lookup","updatedAt":"2026-03-08T17:34:19.312Z"},{"key":"טבריה","label":"טבריה","lat":32.7959,"lon":35.531,"source":"rocketalert.lookup","updatedAt":"2026-03-08T17:34:19.312Z"},{"key":"טייבה","label":"טייבה","lat":32.2669,"lon":35.0097,"source":"rocketalert.lookup","updatedAt":"2026-03-08T16:29:00.120Z"},{"key":"טירה","label":"טירה","lat":32.234394,"lon":34.951488,"source":"rocketalert.lookup","updatedAt":"2026-03-08T16:29:00.120Z"},{"key":"טירת יהודה","label":"טירת יהודה","lat":32.0148,"lon":34.9359,"source":"rocketalert.lookup","updatedAt":"2026-03-08T17:34:19.312Z"},{"key":"טירת כרמל","label":"טירת כרמל","lat":32.7621,"lon":34.973,"source":"rocketalert.lookup","updatedAt":"2026-03-08T17:34:19.312Z"},{"key":"טירת צבי","label":"טירת צבי","lat":32.4225,"lon":35.5283,"source":"rocketalert.lookup","updatedAt":"2026-03-08T17:34:19.312Z"},{"key":"טלמון","label":"טלמון","lat":31.9395,"lon":35.1331,"source":"rocketalert.lookup","updatedAt":"2026-03-08T17:34:19.312Z"},{"key":"טמרה","label":"טמרה","lat":32.8522,"lon":35.2013,"source":"rocketalert.lookup","updatedAt":"2026-03-08T17:34:19.312Z"},{"key":"יבנאל","label":"יבנאל","lat":32.7088,"lon":35.5038,"source":"rocketalert.lookup","updatedAt":"2026-03-08T17:34:19.312Z"},{"key":"יבנה","label":"יבנה","lat":31.878,"lon":34.7394,"source":"rocketalert.lookup","updatedAt":"2026-03-08T17:34:19.312Z"},{"key":"יגור","label":"יגור","lat":32.7415,"lon":35.0768,"source":"rocketalert.lookup","updatedAt":"2026-03-08T17:34:19.312Z"},{"key":"יגל","label":"יגל","lat":31.9878,"lon":34.8803,"source":"rocketalert.lookup","updatedAt":"2026-03-08T17:34:19.312Z"},{"key":"יד בנימין","label":"יד בנימין","lat":31.7967,"lon":34.8204,"source":"rocketalert.lookup","updatedAt":"2026-03-08T17:34:19.312Z"},{"key":"יד רמב''ם","label":"יד רמב''ם","lat":31.899841,"lon":34.900086,"source":"rocketalert.lookup","updatedAt":"2026-03-08T17:34:19.312Z"},{"key":"יהוד מונוסון","label":"יהוד מונוסון","lat":32.0325,"lon":34.8872,"source":"rocketalert.lookup","updatedAt":"2026-03-08T17:34:19.312Z"},{"key":"יודפת","label":"יודפת","lat":32.8366,"lon":35.2715,"source":"rocketalert.lookup","updatedAt":"2026-03-08T17:34:19.312Z"},{"key":"ייט''ב","label":"ייט''ב","lat":31.947215,"lon":35.422375,"source":"rocketalert.lookup","updatedAt":"2026-03-08T16:29:00.120Z"},{"key":"ינון","label":"ינון","lat":31.7418,"lon":34.7809,"source":"rocketalert.lookup","updatedAt":"2026-03-08T17:34:19.312Z"},{"key":"יסוד המעלה","label":"יסוד המעלה","lat":33.0536,"lon":35.589,"source":"rocketalert.lookup","updatedAt":"2026-03-08T17:34:19.312Z"},{"key":"יסודות","label":"יסודות","lat":31.8158,"lon":34.8656,"source":"rocketalert.lookup","updatedAt":"2026-03-08T17:34:19.312Z"},{"key":"יסעור","label":"יסעור","lat":32.9011,"lon":35.1666,"source":"rocketalert.lookup","updatedAt":"2026-03-08T17:34:19.312Z"},{"key":"יערה","label":"יערה","lat":33.068,"lon":35.1861,"source":"rocketalert.lookup","updatedAt":"2026-03-08T17:34:19.312Z"},{"key":"יפית","label":"יפית","lat":32.0627,"lon":35.4743,"source":"rocketalert.lookup","updatedAt":"2026-03-08T16:34:06.108Z"},{"key":"יפתח","label":"יפתח","lat":33.1283,"lon":35.552,"source":"rocketalert.lookup","updatedAt":"2026-03-08T17:34:19.312Z"},